{
  "ArretBus" : {
    "AliBelhouane" : {
      "latitude" : "36.810616",
      "longitude" : "10.180757",
      "nom" : "ali belhouane"
    },
    "sidisalah1" : {
      "latitude" : "36.88862936",
      "longitude" : "10.21503165",
      "nom" : "mosqué sidi salah"
    },
    "sidisalah2" : {
      "latitude" : "36.88433697",
      "longitude" : "10.22127539",
      "nom" : "Sidi salah"
    },
    "sidisalah3" : {
      "latitude" : "36.89211315",
      "longitude" : "10.21153405",
      "nom" : "Onas sidi salah"
    }
  },
  "Aziza" : [ {
    "Latitude" : "37.0623056",
    "Longitude" : "10.1183624",
    "Ville" : "Aziza Kalet landlous"
  }, {
    "Latitude" : "36.9450001",
    "Longitude" : "10.175271",
    "Ville" : "Aziza raoued"
  }, {
    "Latitude" : "36.9093154",
    "Longitude" : "10.178204",
    "Ville" : "Aziza jaafer"
  }, {
    "Latitude" : "36.8990971",
    "Longitude" : "10.1838186",
    "Ville" : "Aziza ariana soughra"
  }, {
    "Latitude" : "36.8913014",
    "Longitude" : "10.1715984",
    "Ville" : "Aziza ghazela"
  }, {
    "Latitude" : "36.8836379",
    "Longitude" : "10.1848968",
    "Ville" : "Aziza ghazela"
  }, {
    "Latitude" : "36.887044",
    "Longitude" : "10.2171192",
    "Ville" : "Aziza sidi saleh"
  }, {
    "Latitude" : "36.8700158",
    "Longitude" : "10.2400869",
    "Ville" : "Aziza soukra"
  }, {
    "Latitude" : "36.8685898",
    "Longitude" : "10.2100714",
    "Ville" : "Aziza borj louzir"
  }, {
    "Latitude" : "36.8638198",
    "Longitude" : "10.198644",
    "Ville" : "Aziza cite enozha"
  }, {
    "Latitude" : "36.8694894",
    "Longitude" : "10.1955747",
    "Ville" : "Aziza cite enozha"
  }, {
    "Latitude" : "36.8692749",
    "Longitude" : "10.1834102",
    "Ville" : "Aziza Aziza"
  }, {
    "Latitude" : "36.8588489",
    "Longitude" : "10.1660382",
    "Ville" : "Aziza enasser"
  }, {
    "Latitude" : "36.8448437",
    "Longitude" : "10.1164134",
    "Ville" : "Aziza Intileka"
  }, {
    "Latitude" : "36.8470345",
    "Longitude" : "10.0949748",
    "Ville" : "Aziza Mnihla"
  }, {
    "Latitude" : "36.8381171",
    "Longitude" : "10.1118294",
    "Ville" : "Aziza Etadhamen"
  }, {
    "Latitude" : "36.8380822",
    "Longitude" : "10.1049276",
    "Ville" : "Aziza Etadhamen"
  }, {
    "Latitude" : "36.8328673",
    "Longitude" : "10.1094738",
    "Ville" : "Aziza Etadhamen"
  }, {
    "Latitude" : "36.8234467",
    "Longitude" : "10.1266278",
    "Ville" : "Aziza Cite etahrir"
  }, {
    "Latitude" : "36.7068436",
    "Longitude" : "10.3794635",
    "Ville" : "Aziza Borj cedria"
  }, {
    "Latitude" : "36.7241612",
    "Longitude" : "10.3489789",
    "Ville" : "Aziza Hamem lif"
  }, {
    "Latitude" : "36.7215534",
    "Longitude" : "10.3013751",
    "Ville" : "Aziza Belair"
  }, {
    "Latitude" : "36.7344707",
    "Longitude" : "10.2989611",
    "Ville" : "Aziza Boumhal"
  }, {
    "Latitude" : "36.6804116",
    "Longitude" : "10.2894896",
    "Ville" : "Aziza Mornag"
  }, {
    "Latitude" : "36.7709981",
    "Longitude" : "10.273065",
    "Ville" : "Aziza Rades"
  }, {
    "Latitude" : "36.7745048",
    "Longitude" : "10.2827095",
    "Ville" : "Aziza Rades"
  }, {
    "Latitude" : "36.7574481",
    "Longitude" : "10.223",
    "Ville" : "Aziza Ben arous"
  }, {
    "Latitude" : "36.7478579",
    "Longitude" : "10.22",
    "Ville" : "Aziza Ben arous"
  }, {
    "Latitude" : "36.7364961",
    "Longitude" : "10.24228",
    "Ville" : "Aziza Yasminete"
  }, {
    "Latitude" : "36.7474648",
    "Longitude" : "10.1815005",
    "Ville" : "Aziza Ibn sina"
  }, {
    "Latitude" : "36.7139982",
    "Longitude" : "10.2064732",
    "Ville" : "Aziza Mourouj"
  }, {
    "Latitude" : "36.7179239",
    "Longitude" : "10.2163436",
    "Ville" : "Aziza Mourouj"
  }, {
    "Latitude" : "36.7048681",
    "Longitude" : "10.1597705",
    "Ville" : "Aziza Cite enozha"
  }, {
    "Latitude" : "36.6943904",
    "Longitude" : "10.1656463",
    "Ville" : "Aziza Fouchana"
  }, {
    "Latitude" : "36.6738199",
    "Longitude" : "10.1561382",
    "Ville" : "Aziza Mhamdia"
  }, {
    "Latitude" : "36.6810952",
    "Longitude" : "10.0889267",
    "Ville" : "Aziza Mhamdia"
  }, {
    "Latitude" : "36.8302951",
    "Longitude" : "9.8409289",
    "Ville" : "Aziza Tbourba"
  }, {
    "Latitude" : "36.8310789",
    "Longitude" : "9.9393493",
    "Ville" : "Aziza Jdaida"
  }, {
    "Latitude" : "36.8441527",
    "Longitude" : "10.0383322",
    "Ville" : "Aziza Oued ellil"
  }, {
    "Latitude" : "36.8229039",
    "Longitude" : "10.0738171",
    "Ville" : "Aziza Daouar hicher"
  }, {
    "Latitude" : "36.824417",
    "Longitude" : "10.0827791",
    "Ville" : "Aziza Khaled ibn walid"
  }, {
    "Latitude" : "36.8261032",
    "Longitude" : "10.0963388",
    "Ville" : "Aziza Daouar hicher"
  }, {
    "Latitude" : "36.8117908",
    "Longitude" : "10.1114995",
    "Ville" : "Aziza Danden"
  }, {
    "Latitude" : "36.8045231",
    "Longitude" : "10.1131463",
    "Ville" : "Aziza Danden"
  }, {
    "Latitude" : "36.8024353",
    "Longitude" : "10.1059452",
    "Ville" : "Aziza Manouba"
  }, {
    "Latitude" : "36.8019175",
    "Longitude" : "10.0991305",
    "Ville" : "Aziza Manouba"
  }, {
    "Latitude" : "36.7953675",
    "Longitude" : "10.0893738",
    "Ville" : "Aziza Manouba"
  }, {
    "Latitude" : "36.734517",
    "Longitude" : "10.3188988",
    "Ville" : "Aziza ezzahra"
  }, {
    "Latitude" : "36.771633",
    "Longitude" : "10.113899",
    "Ville" : "Aziza Sidi hsin"
  }, {
    "Latitude" : "36.7643478",
    "Longitude" : "10.114463",
    "Ville" : "Aziza Sidi hsin"
  }, {
    "Latitude" : "36.7877469",
    "Longitude" : "10.084084",
    "Ville" : "Aziza Agba"
  }, {
    "Latitude" : "36.7924684",
    "Longitude" : "10.1699989",
    "Ville" : "Aziza Beb mnara"
  }, {
    "Latitude" : "36.800083",
    "Longitude" : "10.1535257",
    "Ville" : "Aziza Mallasine"
  }, {
    "Latitude" : "36.7997272",
    "Longitude" : "10.14366",
    "Ville" : "Aziza Tunis"
  }, {
    "Latitude" : "36.7961153",
    "Longitude" : "10.1305318",
    "Ville" : "Aziza Ezzouhour"
  }, {
    "Latitude" : "36.803766",
    "Longitude" : "10.129186",
    "Ville" : "Aziza Khaznadar"
  }, {
    "Latitude" : "36.8235302",
    "Longitude" : "10.1550673",
    "Ville" : "Aziza Jbal lahmer"
  }, {
    "Latitude" : "36.8308764",
    "Longitude" : "10.1947448",
    "Ville" : "Aziza Cite elkhadhra"
  }, {
    "Latitude" : "36.8463925",
    "Longitude" : "10.312466",
    "Ville" : "Aziza Carthage"
  }, {
    "Latitude" : "36.8592861",
    "Longitude" : "10.2656494",
    "Ville" : "Aziza Aouina"
  }, {
    "Latitude" : "36.8575389",
    "Longitude" : "10.2797957",
    "Ville" : "Aziza Ain zaghouan"
  }, {
    "Latitude" : "36.8886328",
    "Longitude" : "10.3045971",
    "Ville" : "Aziza Marsa"
  }, {
    "Latitude" : "36.8767161",
    "Longitude" : "10.294113",
    "Ville" : "Aziza Bhar lazereg"
  } ],
  "Bus" : {
    "bus1" : {
      "latitude" : "36.82483",
      "longitude" : "10.12177",
      "num" : "3a",
      "sens" : "retour"
    }
  },
  "Buslignes" : {
    "-L_SbRgYR5JacQfyVcZd" : {
      "latitude" : "36.80651355",
      "ligne" : "68",
      "longitude" : "10.17424081",
      "nom" : "ali balahouan",
      "num" : "1"
    },
    "-L_SbRlAaV9xfpLJKZ6A" : {
      "latitude" : "36.80533725",
      "ligne" : "68",
      "longitude" : "10.16884037",
      "nom" : "sidi aloui",
      "num" : "2"
    },
    "-L_SbRq3ELw4dGjKXXn0" : {
      "latitude" : "36.80982343",
      "ligne" : "68",
      "longitude" : "10.15257901",
      "nom" : "immeuble chefia",
      "num" : "3"
    },
    "-L_SbRxnBSH95DtMOTMI" : {
      "latitude" : "36.80905034",
      "ligne" : "68",
      "longitude" : "10.14709657",
      "nom" : "bouchoucha",
      "num" : "4"
    },
    "-L_SbS0bF6y-zD0IRhNT" : {
      "latitude" : "36.80825148",
      "ligne" : "68",
      "longitude" : "10.14142102",
      "nom" : "20 mars ",
      "num" : "5"
    },
    "-L_SbS5MlIGugMKHb2Il" : {
      "latitude" : "36.80960131",
      "ligne" : "68",
      "longitude" : "10.13133618",
      "nom" : "chebbi ",
      "num" : "6"
    },
    "-L_SbSBQ1xHRQu6qp-GY" : {
      "latitude" : "36.8120871",
      "ligne" : "68",
      "longitude" : "10.11740783",
      "nom" : "bortal ",
      "num" : "7"
    },
    "-L_SbSGj6W7YgmvlHk1J" : {
      "latitude" : "36.81302493",
      "ligne" : "68",
      "longitude" : "10.11334312",
      "nom" : "champ de course ksar said ",
      "num" : "8"
    },
    "-L_SbSMFPO1fIfKsrAlF" : {
      "latitude" : "36.81745149",
      "ligne" : "68",
      "longitude" : "10.10449894",
      "nom" : "magazin carrefour",
      "num" : "9"
    },
    "-L_SbSSL8ylEhvIMHnZ8" : {
      "latitude" : "36.81987931",
      "ligne" : "68",
      "longitude" : "10.10454554",
      "nom" : "cafÉ la paix",
      "num" : "10"
    },
    "-L_SbSVlleWo12Yst9BK" : {
      "latitude" : "36.82357148",
      "ligne" : "68",
      "longitude" : "10.10825847",
      "nom" : "mess des officiers",
      "num" : "11"
    },
    "-L_SbSZDL1fuEptegnew" : {
      "latitude" : "36.82496592",
      "ligne" : "68",
      "longitude" : "10.1089556",
      "nom" : "citÉ sfar",
      "num" : "12"
    },
    "-L_SbSd-h49z1Uf-0FUU" : {
      "latitude" : "36.82789442",
      "ligne" : "68",
      "longitude" : "10.10630557",
      "nom" : "terminus 18 janvier",
      "num" : "13"
    },
    "-L_SbSgfJa07A3NZY7vH" : {
      "latitude" : "36.80651355",
      "ligne" : "55",
      "longitude" : "10.17424081",
      "nom" : "ali balahouan",
      "num" : "1"
    },
    "-L_SbSnioRBe22Pbsc9P" : {
      "latitude" : "36.80533725",
      "ligne" : "55",
      "longitude" : "10.16884037",
      "nom" : "sidi aloui",
      "num" : "2"
    },
    "-L_SbSrOzOFIBaSnmBFj" : {
      "latitude" : "36.80982343",
      "ligne" : "55",
      "longitude" : "10.15257901",
      "nom" : "immeuble chefia",
      "num" : "3"
    },
    "-L_SbSvsjBl8WC_kZ3IE" : {
      "latitude" : "36.80905034",
      "ligne" : "55",
      "longitude" : "10.14709657",
      "nom" : "bouchoucha",
      "num" : "4"
    },
    "-L_SbT-UgKWtqgGyeIQe" : {
      "latitude" : "36.80825148",
      "ligne" : "55",
      "longitude" : "10.14142102",
      "nom" : "20 mars ",
      "num" : "5"
    },
    "-L_SbT3cQ_e5Jayrj508" : {
      "latitude" : "36.80960131",
      "ligne" : "55",
      "longitude" : "10.13133618",
      "nom" : "chebbi ",
      "num" : "6"
    },
    "-L_SbT7sA5XSqgAfTIIY" : {
      "latitude" : "36.8120871",
      "ligne" : "55",
      "longitude" : "10.11740783",
      "nom" : "bortal ",
      "num" : "7"
    },
    "-L_SbTBnUM8JVDl7MLnd" : {
      "latitude" : "36.81302493",
      "ligne" : "55",
      "longitude" : "10.11334312",
      "nom" : "champ de course ksar said ",
      "num" : "8"
    },
    "-L_SbTFBaCDCU91wA15D" : {
      "latitude" : "36.81647717",
      "ligne" : "55",
      "longitude" : "10.10161194",
      "nom" : "ineps",
      "num" : "9"
    },
    "-L_SbTIn-SG7FEnz16Jc" : {
      "latitude" : "36.81774841",
      "ligne" : "55",
      "longitude" : "10.09520148",
      "nom" : "dÉlÉgation daouar hicher",
      "num" : "10"
    },
    "-L_SbTN6DbzEt-jjzgFv" : {
      "latitude" : "36.82184522",
      "ligne" : "55",
      "longitude" : "10.09551798",
      "nom" : "usine",
      "num" : "11"
    },
    "-L_SbTQkoK5CDlmIJW9s" : {
      "latitude" : "36.82425911",
      "ligne" : "55",
      "longitude" : "10.09630399",
      "nom" : "mosquÉe daouar hicher",
      "num" : "12"
    },
    "-L_SbTUJBrQnVF4ARUHI" : {
      "latitude" : "36.82737656",
      "ligne" : "55",
      "longitude" : "10.09648638",
      "nom" : "taxiphone daouar hicher",
      "num" : "13"
    },
    "-L_SbTXzCtzIdacrc7uW" : {
      "latitude" : "36.83263587",
      "ligne" : "55",
      "longitude" : "10.09581839",
      "nom" : "terminus hopital daouar hicher",
      "num" : "14"
    },
    "-L_SbTaSEqL0WCieo0nY" : {
      "latitude" : "36.80651355",
      "ligne" : "16",
      "longitude" : "10.17424081",
      "nom" : "ali balahouan",
      "num" : "1"
    },
    "-L_SbTeK7JovNl7bFjfq" : {
      "latitude" : "36.80533725",
      "ligne" : "16",
      "longitude" : "10.16884037",
      "nom" : "sidi aloui",
      "num" : "2"
    },
    "-L_SbTi2ZQ_aliEwiDMr" : {
      "latitude" : "36.80982343",
      "ligne" : "16",
      "longitude" : "10.15257901",
      "nom" : "immeuble chefia",
      "num" : "3"
    },
    "-L_SbTnkZLMwTMnzSa_N" : {
      "latitude" : "36.80905034",
      "ligne" : "16",
      "longitude" : "10.14709657",
      "nom" : "bouchoucha",
      "num" : "4"
    },
    "-L_SbTrDdYnHBe3TNNWi" : {
      "latitude" : "36.80825148",
      "ligne" : "16",
      "longitude" : "10.14142102",
      "nom" : "20 mars ",
      "num" : "5"
    },
    "-L_SbTv3OBg0VB_80Q1f" : {
      "latitude" : "36.80960131",
      "ligne" : "16",
      "longitude" : "10.13133618",
      "nom" : "chebbi ",
      "num" : "6"
    },
    "-L_SbTyZwqKXXtUNicJe" : {
      "latitude" : "36.8120871",
      "ligne" : "16",
      "longitude" : "10.11740783",
      "nom" : "bortal ",
      "num" : "7"
    },
    "-L_SbU0x1km8KGZGfySC" : {
      "latitude" : "36.81302493",
      "ligne" : "16",
      "longitude" : "10.11334312",
      "nom" : "champ de course ksar said ",
      "num" : "8"
    },
    "-L_SbU4TPa3okv05yRnF" : {
      "latitude" : "36.81647717",
      "ligne" : "16",
      "longitude" : "10.10161194",
      "nom" : "ineps",
      "num" : "9"
    },
    "-L_SbU83XvIwfvefcMvp" : {
      "latitude" : "36.81849586",
      "ligne" : "16",
      "longitude" : "10.08790693",
      "nom" : "boudreya",
      "num" : "10"
    },
    "-L_SbUBkRB1OELZhTHh8" : {
      "latitude" : "36.819625",
      "ligne" : "16",
      "longitude" : "10.08523974",
      "nom" : "gaaloul",
      "num" : "11"
    },
    "-L_SbUFINlrex0JXx9Zs" : {
      "latitude" : "36.82170344",
      "ligne" : "16",
      "longitude" : "10.07755789",
      "nom" : "inoplast",
      "num" : "12"
    },
    "-L_SbUL9mtJ9sQn9RGQi" : {
      "latitude" : "36.82271111",
      "ligne" : "16",
      "longitude" : "10.07386006",
      "nom" : "section manouba",
      "num" : "13"
    },
    "-L_SbUOsiA5LIXGZvIsc" : {
      "latitude" : "36.82355852",
      "ligne" : "16",
      "longitude" : "10.07114205",
      "nom" : "caserne oued elil 1",
      "num" : "14"
    },
    "-L_SbUSuPAb5Cb-A2Q9_" : {
      "latitude" : "36.82598589",
      "ligne" : "16",
      "longitude" : "10.06445843",
      "nom" : "caserne oued elil 2",
      "num" : "15"
    },
    "-L_SbUZSG2aZsFSJ7T-M" : {
      "latitude" : "36.82815004",
      "ligne" : "16",
      "longitude" : "10.05720574",
      "nom" : "cite militaire",
      "num" : "16"
    },
    "-L_SbUc8cRS73sKqvdqr" : {
      "latitude" : "36.83009286",
      "ligne" : "16",
      "longitude" : "10.049314",
      "nom" : "moezeya",
      "num" : "17"
    },
    "-L_SbUfbOGQk5Pz3D7uN" : {
      "latitude" : "36.83180619",
      "ligne" : "16",
      "longitude" : "10.04150132",
      "nom" : "garde national oued ellil",
      "num" : "18"
    },
    "-L_SbUjEmaQpwA4mHijU" : {
      "latitude" : "36.83298357",
      "ligne" : "16",
      "longitude" : "10.03808114",
      "nom" : "mosquÉe oued ellil",
      "num" : "19"
    },
    "-L_SbUmhtB0tAnoaGD8F" : {
      "latitude" : "36.83366625",
      "ligne" : "16",
      "longitude" : "10.03428313",
      "nom" : "choco tom",
      "num" : "20"
    },
    "-L_SbUq2uc5JrTTRpfTI" : {
      "latitude" : "36.83567254",
      "ligne" : "16",
      "longitude" : "10.01986939",
      "nom" : "cite el bostane",
      "num" : "21"
    },
    "-L_SbUuJ3ZxAAUbrJ0AP" : {
      "latitude" : "36.83661709",
      "ligne" : "16",
      "longitude" : "10.01265961",
      "nom" : "ecole primaire",
      "num" : "22"
    },
    "-L_SbUxoZHkv_KJI0K0Y" : {
      "latitude" : "36.83684035",
      "ligne" : "16",
      "longitude" : "10.00791747",
      "nom" : "bejawa 2",
      "num" : "23"
    },
    "-L_SbV0GcoyJlbVd4pC-" : {
      "latitude" : "36.83561351",
      "ligne" : "16",
      "longitude" : "9.997557298",
      "nom" : "pompage",
      "num" : "24"
    },
    "-L_SbV59mZX_0ot2pnqA" : {
      "latitude" : "36.8341505",
      "ligne" : "16",
      "longitude" : "9.985185655",
      "nom" : "erriadh",
      "num" : "25"
    },
    "-L_SbV9VI28ZcAwsNb2U" : {
      "latitude" : "36.83337551",
      "ligne" : "16",
      "longitude" : "9.978622565",
      "nom" : "zone f",
      "num" : "26"
    },
    "-L_SbVCs9Wf0tIbNYSnR" : {
      "latitude" : "36.83221838",
      "ligne" : "16",
      "longitude" : "9.968244823",
      "nom" : "saida",
      "num" : "27"
    },
    "-L_SbVGFgdTvje4QYe5P" : {
      "latitude" : "36.83360092",
      "ligne" : "16",
      "longitude" : "9.950274023",
      "nom" : "oued chafrou",
      "num" : "28"
    },
    "-L_SbVJvOBxwva4kLQEW" : {
      "latitude" : "36.83324127",
      "ligne" : "16",
      "longitude" : "9.949300038",
      "nom" : "el hbibia 1",
      "num" : "29"
    },
    "-L_SbVNKBeMlm9GA0wmE" : {
      "latitude" : "36.82733621",
      "ligne" : "16",
      "longitude" : "9.947357867",
      "nom" : "el hbibia 2",
      "num" : "30"
    },
    "-L_SbVQwveurox3QQo4E" : {
      "latitude" : "36.80628993",
      "ligne" : "16",
      "longitude" : "9.941870319",
      "nom" : "el hbibia",
      "num" : "31"
    },
    "-L_SbVVTXVLEzXdl3qmQ" : {
      "latitude" : "36.79759242",
      "ligne" : "16",
      "longitude" : "9.944093996",
      "nom" : "terminus 16",
      "num" : "32"
    },
    "-L_SbVYxjgUwcyteXRAu" : {
      "latitude" : "36.80651355",
      "ligne" : "56",
      "longitude" : "10.17424081",
      "nom" : "ali balahouan",
      "num" : "1"
    },
    "-L_SbVcCPZQmTbZGOOy_" : {
      "latitude" : "36.80533725",
      "ligne" : "56",
      "longitude" : "10.16884037",
      "nom" : "sidi aloui",
      "num" : "2"
    },
    "-L_SbVfd49BCamfkWPoQ" : {
      "latitude" : "36.80982343",
      "ligne" : "56",
      "longitude" : "10.15257901",
      "nom" : "immeuble chefia",
      "num" : "3"
    },
    "-L_SbVj1OaMgUxJjInB-" : {
      "latitude" : "36.80905034",
      "ligne" : "56",
      "longitude" : "10.14709657",
      "nom" : "bouchoucha",
      "num" : "4"
    },
    "-L_SbVmPPT9xy9tDc-pc" : {
      "latitude" : "36.80825148",
      "ligne" : "56",
      "longitude" : "10.14142102",
      "nom" : "20 mars ",
      "num" : "5"
    },
    "-L_SbVqZBVhfUyassodp" : {
      "latitude" : "36.80960131",
      "ligne" : "56",
      "longitude" : "10.13133618",
      "nom" : "chebbi ",
      "num" : "6"
    },
    "-L_SbVtyyb6wwI-l5Rir" : {
      "latitude" : "36.8120871",
      "ligne" : "56",
      "longitude" : "10.11740783",
      "nom" : "bortal ",
      "num" : "7"
    },
    "-L_SbWCag5iU10N1dGjm" : {
      "latitude" : "36.81302493",
      "ligne" : "56",
      "longitude" : "10.11334312",
      "nom" : "champ de course ksar said ",
      "num" : "8"
    },
    "-L_SbWGFsdxtZZec-8o8" : {
      "latitude" : "36.81647717",
      "ligne" : "56",
      "longitude" : "10.10161194",
      "nom" : "ineps",
      "num" : "9"
    },
    "-L_SbWKis6cztAvv2x7r" : {
      "latitude" : "36.81774841",
      "ligne" : "56",
      "longitude" : "10.09520148",
      "nom" : "dÉlÉgation daouar hicher",
      "num" : "10"
    },
    "-L_SbWOLPOtTPDohMlmr" : {
      "latitude" : "36.8205913",
      "ligne" : "56",
      "longitude" : "10.09271775",
      "nom" : "cafÉ hammem",
      "num" : "11"
    },
    "-L_SbWS15u-m-pYq9te8" : {
      "latitude" : "36.82210345",
      "ligne" : "56",
      "longitude" : "10.08935975",
      "nom" : "baigneur",
      "num" : "12"
    },
    "-L_SbWWTquvSlQf8g8tg" : {
      "latitude" : "36.82552529",
      "ligne" : "56",
      "longitude" : "10.08101796",
      "nom" : "mosquÉe avenue chebbi",
      "num" : "13"
    },
    "-L_SbWZy4MNK6hJjsu0D" : {
      "latitude" : "36.82858197",
      "ligne" : "56",
      "longitude" : "10.07626483",
      "nom" : "sabbela (56)",
      "num" : "14"
    },
    "-L_SbWdIYhTUziwwqGLo" : {
      "latitude" : "36.83163115",
      "ligne" : "56",
      "longitude" : "10.08313154",
      "nom" : "affaires sociales",
      "num" : "15"
    },
    "-L_SbWgfJxb_XVjmfXtr" : {
      "latitude" : "36.83262668",
      "ligne" : "56",
      "longitude" : "10.08861372",
      "nom" : "terminus 56 72",
      "num" : "16"
    },
    "-L_SbWkGQ4uoCk6XIubE" : {
      "latitude" : "36.80038414",
      "ligne" : "77",
      "longitude" : "10.1903877",
      "nom" : "terminus tunis marine bus",
      "num" : "1"
    },
    "-L_SbWngccS4DsN014bz" : {
      "latitude" : "36.82886362",
      "ligne" : "77",
      "longitude" : "10.20109668",
      "nom" : "charguia1",
      "num" : "2"
    },
    "-L_SbWrY1gK8uYUMGcLV" : {
      "latitude" : "36.8356665",
      "ligne" : "77",
      "longitude" : "10.20145543",
      "nom" : "foire la charguia",
      "num" : "3"
    },
    "-L_SbWxSSGrRBtReu5ZB" : {
      "latitude" : "36.83922201",
      "ligne" : "77",
      "longitude" : "10.20458733",
      "nom" : "depot charguia",
      "num" : "4"
    },
    "-L_SbX-rQvqLQ2P6UhFr" : {
      "latitude" : "36.8543199",
      "ligne" : "77",
      "longitude" : "10.20283316",
      "nom" : "charguia 2",
      "num" : "5"
    },
    "-L_SbX3jtSMec5SvxxdA" : {
      "latitude" : "36.86016594",
      "ligne" : "77",
      "longitude" : "10.19818758",
      "nom" : "les abattoirs",
      "num" : "6"
    },
    "-L_SbX7ROgV3FeSQOgvX" : {
      "latitude" : "36.85811",
      "ligne" : "77",
      "longitude" : "10.19143914",
      "nom" : "place sala centre",
      "num" : "7"
    },
    "-L_SbXAx-rDLikMGNE0a" : {
      "latitude" : "36.8581935",
      "ligne" : "77",
      "longitude" : "10.18858686",
      "nom" : "arrÉt bab hadid",
      "num" : "8"
    },
    "-L_SbXEY2kbqI8YMS3-P" : {
      "latitude" : "36.86194284",
      "ligne" : "77",
      "longitude" : "10.18722807",
      "nom" : "magro",
      "num" : "9"
    },
    "-L_SbXJft1IKYMficrue" : {
      "latitude" : "36.86652969",
      "ligne" : "77",
      "longitude" : "10.18455097",
      "nom" : "citÉ ellil",
      "num" : "10"
    },
    "-L_SbXNKXsM6Pd4aNiUL" : {
      "latitude" : "36.86780915",
      "ligne" : "77",
      "longitude" : "10.1839567",
      "nom" : "hopital mahmoud matri",
      "num" : "11"
    },
    "-L_SbXQpqUIZd3FikYdk" : {
      "latitude" : "36.87160348",
      "ligne" : "77",
      "longitude" : "10.18215333",
      "nom" : "touben 2",
      "num" : "12"
    },
    "-L_SbXUvkyQm-0_fmODY" : {
      "latitude" : "36.87817426",
      "ligne" : "77",
      "longitude" : "10.17842431",
      "nom" : "croisement riadh andalous",
      "num" : "13"
    },
    "-L_SbXaDwfN9DEsAE7d2" : {
      "latitude" : "36.88018587",
      "ligne" : "77",
      "longitude" : "10.17788862",
      "nom" : "marbrerie",
      "num" : "14"
    },
    "-L_SbXe6Auef-bJFo8A_" : {
      "latitude" : "36.88177036",
      "ligne" : "77",
      "longitude" : "10.17543492",
      "nom" : "citÉ el ghazela",
      "num" : "15"
    },
    "-L_SbXi5m1VpY2C1G8ie" : {
      "latitude" : "36.88428219",
      "ligne" : "77",
      "longitude" : "10.17114902",
      "nom" : "usine de carrelage",
      "num" : "16"
    },
    "-L_SbXm22_VonbIgKQxV" : {
      "latitude" : "36.88748072",
      "ligne" : "77",
      "longitude" : "10.16690778",
      "nom" : "citÉ populaire ennahli",
      "num" : "17"
    },
    "-L_SbXqVMQURhKUj35-A" : {
      "latitude" : "36.89080123",
      "ligne" : "77",
      "longitude" : "10.15980517",
      "nom" : "carriÉre nahli",
      "num" : "18"
    },
    "-L_SbXuGwbKxL4zq67Ap" : {
      "latitude" : "36.89321097",
      "ligne" : "77",
      "longitude" : "10.14688203",
      "nom" : "nahli",
      "num" : "19"
    },
    "-L_SbXyJ4l70-ds5TdBB" : {
      "latitude" : "36.89234977",
      "ligne" : "77",
      "longitude" : "10.13845478",
      "nom" : "nahli 2",
      "num" : "20"
    },
    "-L_SbY0q_bovdn_lwcT8" : {
      "latitude" : "36.89295925",
      "ligne" : "77",
      "longitude" : "10.13008629",
      "nom" : "nahli 3",
      "num" : "21"
    },
    "-L_SbY4KOCeQsu36ZaI_" : {
      "latitude" : "36.8982192",
      "ligne" : "77",
      "longitude" : "10.12048852",
      "nom" : "geant",
      "num" : "22"
    },
    "-L_SbY7txOA8wDizT4gV" : {
      "latitude" : "36.90041934",
      "ligne" : "77",
      "longitude" : "10.12156759",
      "nom" : "guichet gÉant",
      "num" : "23"
    },
    "-L_SbYBS8UXedIYArfSy" : {
      "latitude" : "36.89851235",
      "ligne" : "77",
      "longitude" : "10.11438596",
      "nom" : "kiosque agile",
      "num" : "24"
    },
    "-L_SbYEz2yMkq8Eyb3yh" : {
      "latitude" : "36.90805047",
      "ligne" : "77",
      "longitude" : "10.10844621",
      "nom" : "sabalet ben amar",
      "num" : "25"
    },
    "-L_SbYPnGaNakjMzfGaP" : {
      "latitude" : "36.91380111",
      "ligne" : "77",
      "longitude" : "10.10630554",
      "nom" : "el machta",
      "num" : "26"
    },
    "-L_SbYTHl7kiM991u7rM" : {
      "latitude" : "36.92601297",
      "ligne" : "77",
      "longitude" : "10.09973896",
      "nom" : "pÉage",
      "num" : "27"
    },
    "-L_SbYWnnVw8Uq1qxhXj" : {
      "latitude" : "36.96928709",
      "ligne" : "77",
      "longitude" : "10.07391036",
      "nom" : "arrÉt usine",
      "num" : "28"
    },
    "-L_SbY_ibS0Mpj4nv2mM" : {
      "latitude" : "36.97634192",
      "ligne" : "77",
      "longitude" : "10.06744516",
      "nom" : "oued elmelah",
      "num" : "29"
    },
    "-L_SbYdDW4J9JBC39re8" : {
      "latitude" : "36.98471685",
      "ligne" : "77",
      "longitude" : "10.06353736",
      "nom" : "arrÉt el kaabi",
      "num" : "30"
    },
    "-L_SbYgcLm0JdClJSN1s" : {
      "latitude" : "36.99232932",
      "ligne" : "77",
      "longitude" : "10.06206337",
      "nom" : "pont bizerte glasse retour",
      "num" : "31"
    },
    "-L_SbYk6bMnhr4Y-Llpp" : {
      "latitude" : "36.99908621",
      "ligne" : "77",
      "longitude" : "10.0720371",
      "nom" : "tobyas",
      "num" : "32"
    },
    "-L_SbYnv4nX7LnHuDdon" : {
      "latitude" : "37.01182898",
      "ligne" : "77",
      "longitude" : "10.07070726",
      "nom" : "methali",
      "num" : "33"
    },
    "-L_SbYtPhUwNdSBjuxlW" : {
      "latitude" : "37.01983022",
      "ligne" : "77",
      "longitude" : "10.07552451",
      "nom" : "oued majerda",
      "num" : "34"
    },
    "-L_SbYxkVVXyHQSCiUOy" : {
      "latitude" : "37.0313937",
      "ligne" : "77",
      "longitude" : "10.08109278",
      "nom" : "gessir 1",
      "num" : "35"
    },
    "-L_SbZ24M2aGLZzs_UJl" : {
      "latitude" : "37.03444274",
      "ligne" : "77",
      "longitude" : "10.08480495",
      "nom" : "gessir 2",
      "num" : "36"
    },
    "-L_SbZ5j74kFDd8xATK2" : {
      "latitude" : "37.04375733",
      "ligne" : "77",
      "longitude" : "10.09327564",
      "nom" : "huilerie entrÉe galaat",
      "num" : "37"
    },
    "-L_SbZ9pUEZhvQwEkDT4" : {
      "latitude" : "37.04598703",
      "ligne" : "77",
      "longitude" : "10.09580204",
      "nom" : "rÉservoir d'eau",
      "num" : "38"
    },
    "-L_SbZEPk_Rp6LsUTP9-" : {
      "latitude" : "37.04847662",
      "ligne" : "77",
      "longitude" : "10.09802241",
      "nom" : "ejjbal",
      "num" : "39"
    },
    "-L_SbZIPtG_SLVXxu_mw" : {
      "latitude" : "37.05139994",
      "ligne" : "77",
      "longitude" : "10.10149931",
      "nom" : "el fajja",
      "num" : "40"
    },
    "-L_SbZMratFFhDZgA6as" : {
      "latitude" : "37.0552145",
      "ligne" : "77",
      "longitude" : "10.10428344",
      "nom" : "ejjbal 2",
      "num" : "41"
    },
    "-L_SbZQFyoolEuypztS_" : {
      "latitude" : "37.05640036",
      "ligne" : "77",
      "longitude" : "10.10630582",
      "nom" : "ejjbal 3",
      "num" : "42"
    },
    "-L_SbZTcDlG8lcdnMKrP" : {
      "latitude" : "37.05840014",
      "ligne" : "77",
      "longitude" : "10.10990011",
      "nom" : "municipale",
      "num" : "43"
    },
    "-L_SbZXFpqXhPn-YcahF" : {
      "latitude" : "37.05976089",
      "ligne" : "77",
      "longitude" : "10.11200284",
      "nom" : "ben nicha",
      "num" : "44"
    },
    "-L_SbZ_obQJ8zuFG0hln" : {
      "latitude" : "37.06097236",
      "ligne" : "77",
      "longitude" : "10.1155058",
      "nom" : "kambouza",
      "num" : "45"
    },
    "-L_SbZddJUbeE7IkmjBi" : {
      "latitude" : "37.0623138",
      "ligne" : "77",
      "longitude" : "10.11796519",
      "nom" : "errmila",
      "num" : "46"
    },
    "-L_SbZh1borlvBWlMf7Y" : {
      "latitude" : "37.06132225",
      "ligne" : "77",
      "longitude" : "10.11865446",
      "nom" : "route lycÉe",
      "num" : "47"
    },
    "-L_SbZkeIiZf27UjzIzn" : {
      "latitude" : "37.05812131",
      "ligne" : "77",
      "longitude" : "10.12007629",
      "nom" : "ecole primaire",
      "num" : "48"
    },
    "-L_SbZoBHk59FafU5eiu" : {
      "latitude" : "37.05310817",
      "ligne" : "77",
      "longitude" : "10.12190555",
      "nom" : "terminus 44/44a/77",
      "num" : "49"
    },
    "-L_SbZrhcZEtZM2csvhz" : {
      "latitude" : "36.84218369",
      "ligne" : "6B",
      "longitude" : "10.18251903",
      "nom" : "10 decembre",
      "num" : "1"
    },
    "-L_SbZvjAm44c7f1ILQJ" : {
      "latitude" : "36.85315688",
      "ligne" : "6B",
      "longitude" : "10.18259239",
      "nom" : "mosquÉe ariana el jadida",
      "num" : "3"
    },
    "-L_SbZz9c5ihQdZ6LBFH" : {
      "latitude" : "36.85588684",
      "ligne" : "6B",
      "longitude" : "10.18371356",
      "nom" : "ariana supÉrieur",
      "num" : "4"
    },
    "-L_Sb_32h8udMH8RkTdN" : {
      "latitude" : "36.85702001",
      "ligne" : "6B",
      "longitude" : "10.18335414",
      "nom" : "terminus citÉ el mallaha",
      "num" : "5"
    },
    "-L_Sb_6WhJu0rb8fTnqi" : {
      "latitude" : "36.84218369",
      "ligne" : "6",
      "longitude" : "10.18251903",
      "nom" : "10 decembre",
      "num" : "1"
    },
    "-L_Sb_A6s0TwTyrdZ3Re" : {
      "latitude" : "36.8518082",
      "ligne" : "6",
      "longitude" : "10.18437512",
      "nom" : "lycee ariana",
      "num" : "3"
    },
    "-L_Sb_E6VsbGQlO2RMBg" : {
      "latitude" : "36.85811",
      "ligne" : "6",
      "longitude" : "10.19143914",
      "nom" : "place sala centre",
      "num" : "4"
    },
    "-L_Sb_HbA4OXwX4xLTmr" : {
      "latitude" : "36.8584957",
      "ligne" : "6",
      "longitude" : "10.19470699",
      "nom" : "foyer ariana",
      "num" : "5"
    },
    "-L_Sb_LFr_QxY9hKqFHJ" : {
      "latitude" : "36.86016594",
      "ligne" : "6",
      "longitude" : "10.19818758",
      "nom" : "les abattoirs",
      "num" : "6"
    },
    "-L_Sb_R2fbF4by_mApqT" : {
      "latitude" : "36.86007603",
      "ligne" : "6",
      "longitude" : "10.19909334",
      "nom" : "citÉ ennozha",
      "num" : "7"
    },
    "-L_Sb_WKrPFldKmAHXZt" : {
      "latitude" : "36.86477104",
      "ligne" : "6",
      "longitude" : "10.20113128",
      "nom" : "borje louzir",
      "num" : "8"
    },
    "-L_Sb__3QkNioFIiexF0" : {
      "latitude" : "36.86778332",
      "ligne" : "6",
      "longitude" : "10.20846391",
      "nom" : "sidi soufiene",
      "num" : "9"
    },
    "-L_Sb_cdoe_lAxE9P12d" : {
      "latitude" : "36.87387722",
      "ligne" : "6",
      "longitude" : "10.2192893",
      "nom" : "terminus sidi soufiene",
      "num" : "10"
    },
    "-L_Sb_hTpJ8L-H0aHU1h" : {
      "latitude" : "36.84218369",
      "ligne" : "27",
      "longitude" : "10.18251903",
      "nom" : "10 decembre",
      "num" : "1"
    },
    "-L_Sb_nC0XT8iRaxGzgu" : {
      "latitude" : "36.85313089",
      "ligne" : "27",
      "longitude" : "10.18521641",
      "nom" : "lycÉe kheredinne",
      "num" : "3"
    },
    "-L_Sb_rHcTDviDPhQvjl" : {
      "latitude" : "36.85574986",
      "ligne" : "27",
      "longitude" : "10.18784322",
      "nom" : "la poste",
      "num" : "4"
    },
    "-L_Sb_vNXRyfKP4h1GJm" : {
      "latitude" : "36.8581935",
      "ligne" : "27",
      "longitude" : "10.18858686",
      "nom" : "arrÉt bab hadid",
      "num" : "5"
    },
    "-L_Sb_z06bz0lbkcSUYU" : {
      "latitude" : "36.86194284",
      "ligne" : "27",
      "longitude" : "10.18722807",
      "nom" : "magro",
      "num" : "6"
    },
    "-L_Sba1Wgu9S04ESotvN" : {
      "latitude" : "36.87303964",
      "ligne" : "27",
      "longitude" : "10.18539852",
      "nom" : "cafÉ leskale",
      "num" : "7"
    },
    "-L_Sba5E0Ivu8wry5khX" : {
      "latitude" : "36.87713088",
      "ligne" : "27",
      "longitude" : "10.18618655",
      "nom" : "lakrade",
      "num" : "8"
    },
    "-L_Sba8m2gp8kE8PYw6_" : {
      "latitude" : "36.87991057",
      "ligne" : "27",
      "longitude" : "10.1856544",
      "nom" : "enkhilette",
      "num" : "9"
    },
    "-L_SbaCPcbWZaOGTjVtj" : {
      "latitude" : "36.88970194",
      "ligne" : "27",
      "longitude" : "10.18204951",
      "nom" : "el ghazela",
      "num" : "10"
    },
    "-L_SbaGMOj3vs2UsWdIo" : {
      "latitude" : "36.89206966",
      "ligne" : "27",
      "longitude" : "10.1812588",
      "nom" : "lycÉe el wafa",
      "num" : "11"
    },
    "-L_SbaKYStCui1Tub_iv" : {
      "latitude" : "36.89764739",
      "ligne" : "27",
      "longitude" : "10.1808157",
      "nom" : "la petite ariana",
      "num" : "12"
    },
    "-L_SbaOZVb21I6EA08yI" : {
      "latitude" : "36.89981808",
      "ligne" : "27",
      "longitude" : "10.18085861",
      "nom" : "jaafer1",
      "num" : "13"
    },
    "-L_SbaS0xC32_sMPYmCJ" : {
      "latitude" : "36.90316409",
      "ligne" : "27",
      "longitude" : "10.18060112",
      "nom" : "jaafer essebelle",
      "num" : "14"
    },
    "-L_SbaV_nWw93xIzCqc5" : {
      "latitude" : "36.90448192",
      "ligne" : "27",
      "longitude" : "10.18037152",
      "nom" : "mosquÉe jaafer",
      "num" : "15"
    },
    "-L_SbaZ8xv8Ed7XGZY5P" : {
      "latitude" : "36.90804649",
      "ligne" : "27",
      "longitude" : "10.17900896",
      "nom" : "orange",
      "num" : "16"
    },
    "-L_SbacbVSXWCK-5CwYN" : {
      "latitude" : "36.93725931",
      "ligne" : "27",
      "longitude" : "10.17935658",
      "nom" : "aichoucha",
      "num" : "17"
    },
    "-L_SbaggDAq7ZB8ekcgl" : {
      "latitude" : "36.93977189",
      "ligne" : "27",
      "longitude" : "10.17862701",
      "nom" : "sidi amor",
      "num" : "18"
    },
    "-L_SbamUAgltpWrpwCBf" : {
      "latitude" : "36.95084843",
      "ligne" : "27",
      "longitude" : "10.18552351",
      "nom" : "lycÉe sidi amor",
      "num" : "19"
    },
    "-L_Sbaq3G2Z1_MNed34T" : {
      "latitude" : "36.95349099",
      "ligne" : "27",
      "longitude" : "10.18894815",
      "nom" : "bureau de poste raoued",
      "num" : "20"
    },
    "-L_SbatzrQXHWNgec_LW" : {
      "latitude" : "36.95656887",
      "ligne" : "27",
      "longitude" : "10.20200515",
      "nom" : "cafÉ manachou",
      "num" : "21"
    },
    "-L_SbaxatD1o0j4l4fDC" : {
      "latitude" : "36.95628413",
      "ligne" : "27",
      "longitude" : "10.21116543",
      "nom" : "lycÉe raoued",
      "num" : "22"
    },
    "-L_Sbb0Ujztv4d-e8yJm" : {
      "latitude" : "36.95642131",
      "ligne" : "27",
      "longitude" : "10.22861052",
      "nom" : "terminus raoued",
      "num" : "23"
    },
    "-L_Sbb85SBMSYwp46Igw" : {
      "latitude" : "36.8016177",
      "ligne" : "527",
      "longitude" : "10.183899",
      "nom" : "jeans jaures",
      "num" : "1"
    },
    "-L_SbbBko6_EF6wQGkZM" : {
      "latitude" : "36.80549955",
      "ligne" : "527",
      "longitude" : "10.18199775",
      "nom" : "steg jeans jaures ",
      "num" : "2"
    },
    "-L_SbbFI9P98ImpTpvFN" : {
      "latitude" : "36.80726913",
      "ligne" : "527",
      "longitude" : "10.18530759",
      "nom" : "place des droits de l'homme",
      "num" : "3"
    },
    "-L_SbbJRsvyWDVN-kW9C" : {
      "latitude" : "36.81541917",
      "ligne" : "527",
      "longitude" : "10.18394248",
      "nom" : "mohamed v",
      "num" : "4"
    },
    "-L_SbbN1phJ6VUhB72yF" : {
      "latitude" : "36.81561858",
      "ligne" : "527",
      "longitude" : "10.18506087",
      "nom" : "maison blanche",
      "num" : "5"
    },
    "-L_SbbQUgA_uQHYXhUe_" : {
      "latitude" : "36.81942348",
      "ligne" : "527",
      "longitude" : "10.18550612",
      "nom" : "banque de l'habitat",
      "num" : "6"
    },
    "-L_SbbUCbuBoBq_Z_6oq" : {
      "latitude" : "36.82332607",
      "ligne" : "527",
      "longitude" : "10.19396022",
      "nom" : "montplaisir",
      "num" : "7"
    },
    "-L_SbbXcN0k8b2Nobt2D" : {
      "latitude" : "36.82383797",
      "ligne" : "527",
      "longitude" : "10.19506015",
      "nom" : "citÉ el khadhra",
      "num" : "8"
    },
    "-L_SbbanLQScruSZ5_Ol" : {
      "latitude" : "36.82886362",
      "ligne" : "527",
      "longitude" : "10.20109668",
      "nom" : "charguia1",
      "num" : "9"
    },
    "-L_Sbbf2M_Vu1vkyrC1t" : {
      "latitude" : "36.8356665",
      "ligne" : "527",
      "longitude" : "10.20145543",
      "nom" : "foire la charguia",
      "num" : "10"
    },
    "-L_SbbjBP98tXCqtUNir" : {
      "latitude" : "36.8543199",
      "ligne" : "527",
      "longitude" : "10.20283316",
      "nom" : "charguia 2",
      "num" : "11"
    },
    "-L_SbbmwehCCZg-ZTr-G" : {
      "latitude" : "36.86845607",
      "ligne" : "527",
      "longitude" : "10.19509614",
      "nom" : "citÉ nozha",
      "num" : "12"
    },
    "-L_SbbqLIR3yaZPExEfy" : {
      "latitude" : "36.87713088",
      "ligne" : "527",
      "longitude" : "10.18618655",
      "nom" : "lakrade",
      "num" : "13"
    },
    "-L_SbbuG5CU4OvppR0AE" : {
      "latitude" : "36.87991057",
      "ligne" : "527",
      "longitude" : "10.1856544",
      "nom" : "enkhilette",
      "num" : "14"
    },
    "-L_Sbbxcsn-RiLF0SU_L" : {
      "latitude" : "36.89025631",
      "ligne" : "527",
      "longitude" : "10.18006039",
      "nom" : "salon bader",
      "num" : "15"
    },
    "-L_Sbc0E6tZe_M0vjEMN" : {
      "latitude" : "36.89008086",
      "ligne" : "527",
      "longitude" : "10.17230397",
      "nom" : "tunisie tÉlÉcom el ghazela",
      "num" : "16"
    },
    "-L_Sbc3cJYUWjHM9mXVR" : {
      "latitude" : "36.89118641",
      "ligne" : "527",
      "longitude" : "10.17135286",
      "nom" : "magazin aziza",
      "num" : "17"
    },
    "-L_Sbc8aKywj6GQWdAfq" : {
      "latitude" : "36.89225132",
      "ligne" : "527",
      "longitude" : "10.16421926",
      "nom" : "ecole abu el kacem echebi",
      "num" : "18"
    },
    "-L_SbcEal83rQfLarcI7" : {
      "latitude" : "36.89351174",
      "ligne" : "527",
      "longitude" : "10.165452",
      "nom" : "terminus citÉ el ghazela",
      "num" : "19"
    },
    "-L_SbcIDo7wkE9NP8PiQ" : {
      "latitude" : "36.84218369",
      "ligne" : "27A",
      "longitude" : "10.18251903",
      "nom" : "10 decembre",
      "num" : "1"
    },
    "-L_SbcMioMAhqC0l8iA7" : {
      "latitude" : "36.85313089",
      "ligne" : "27A",
      "longitude" : "10.18521641",
      "nom" : "lycÉe kheredinne",
      "num" : "3"
    },
    "-L_SbcS_eEb3PenFtBtp" : {
      "latitude" : "36.85574986",
      "ligne" : "27A",
      "longitude" : "10.18784322",
      "nom" : "la poste",
      "num" : "4"
    },
    "-L_SbcWg8vEDA6464Kq1" : {
      "latitude" : "36.8581935",
      "ligne" : "27A",
      "longitude" : "10.18858686",
      "nom" : "arrÉt bab hadid",
      "num" : "5"
    },
    "-L_Sbc_EvIeLpE6UmI3a" : {
      "latitude" : "36.86194284",
      "ligne" : "27A",
      "longitude" : "10.18722807",
      "nom" : "magro",
      "num" : "6"
    },
    "-L_SbcdkbzSSR3XBaaWC" : {
      "latitude" : "36.87303964",
      "ligne" : "27A",
      "longitude" : "10.18539852",
      "nom" : "cafÉ leskale",
      "num" : "7"
    },
    "-L_SbchS_eHlgR5Lifab" : {
      "latitude" : "36.87713088",
      "ligne" : "27A",
      "longitude" : "10.18618655",
      "nom" : "lakrade",
      "num" : "8"
    },
    "-L_SbclE3fLOl0_hyU2t" : {
      "latitude" : "36.87991057",
      "ligne" : "27A",
      "longitude" : "10.1856544",
      "nom" : "enkhilette",
      "num" : "9"
    },
    "-L_SbcokI023m1wpDBec" : {
      "latitude" : "36.88970194",
      "ligne" : "27A",
      "longitude" : "10.18204951",
      "nom" : "el ghazela",
      "num" : "10"
    },
    "-L_SbcsHc8U19HY77hJj" : {
      "latitude" : "36.89025631",
      "ligne" : "27A",
      "longitude" : "10.18006039",
      "nom" : "salon bader",
      "num" : "11"
    },
    "-L_Sbcvxw9cE2zbTg2iH" : {
      "latitude" : "36.89008086",
      "ligne" : "27A",
      "longitude" : "10.17230397",
      "nom" : "tunisie tÉlÉcom el ghazela",
      "num" : "12"
    },
    "-L_SbczUjyIMjdxRoE9w" : {
      "latitude" : "36.89118641",
      "ligne" : "27A",
      "longitude" : "10.17135286",
      "nom" : "magazin aziza",
      "num" : "13"
    },
    "-L_Sbd2B4yfDYoyRKqSE" : {
      "latitude" : "36.89225132",
      "ligne" : "27A",
      "longitude" : "10.16421926",
      "nom" : "ecole abu el kacem echebi",
      "num" : "14"
    },
    "-L_Sbd5ym2DW65Ss4_gk" : {
      "latitude" : "36.89351174",
      "ligne" : "27A",
      "longitude" : "10.165452",
      "nom" : "terminus citÉ el ghazela",
      "num" : "15"
    },
    "-L_Sbd9V6FLopsCkdOHM" : {
      "latitude" : "36.84218369",
      "ligne" : "27C",
      "longitude" : "10.18251903",
      "nom" : "10 decembre",
      "num" : "1"
    },
    "-L_SbdDcJdiOOnPEY6Rg" : {
      "latitude" : "36.85313089",
      "ligne" : "27C",
      "longitude" : "10.18521641",
      "nom" : "lycÉe kheredinne",
      "num" : "3"
    },
    "-L_SbdH5hCsQRAomSeKY" : {
      "latitude" : "36.85574986",
      "ligne" : "27C",
      "longitude" : "10.18784322",
      "nom" : "la poste",
      "num" : "4"
    },
    "-L_SbdKwPI-25Cy57KZW" : {
      "latitude" : "36.8581935",
      "ligne" : "27C",
      "longitude" : "10.18858686",
      "nom" : "arrÉt bab hadid",
      "num" : "5"
    },
    "-L_SbdONA0Diti_kTlZ3" : {
      "latitude" : "36.86194284",
      "ligne" : "27C",
      "longitude" : "10.18722807",
      "nom" : "magro",
      "num" : "6"
    },
    "-L_SbdRr5T1-ewEaAIws" : {
      "latitude" : "36.87303964",
      "ligne" : "27C",
      "longitude" : "10.18539852",
      "nom" : "cafÉ leskale",
      "num" : "7"
    },
    "-L_SbdYyfuf6Lenhhkti" : {
      "latitude" : "36.87713088",
      "ligne" : "27C",
      "longitude" : "10.18618655",
      "nom" : "lakrade",
      "num" : "8"
    },
    "-L_SbdbjYa_nThvXlHld" : {
      "latitude" : "36.87991057",
      "ligne" : "27C",
      "longitude" : "10.1856544",
      "nom" : "enkhilette",
      "num" : "9"
    },
    "-L_Sbe5RdN4bdaC61vrI" : {
      "latitude" : "36.88970194",
      "ligne" : "27C",
      "longitude" : "10.18204951",
      "nom" : "el ghazela",
      "num" : "10"
    },
    "-L_Sbe8rqdIswPmwq8-_" : {
      "latitude" : "36.89206966",
      "ligne" : "27C",
      "longitude" : "10.1812588",
      "nom" : "lycÉe el wafa",
      "num" : "11"
    },
    "-L_SbeCI9U8NSnnW-W6R" : {
      "latitude" : "36.89764739",
      "ligne" : "27C",
      "longitude" : "10.1808157",
      "nom" : "la petite ariana",
      "num" : "12"
    },
    "-L_SbeFqI0cizPht53-T" : {
      "latitude" : "36.89981808",
      "ligne" : "27C",
      "longitude" : "10.18085861",
      "nom" : "jaafer1",
      "num" : "13"
    },
    "-L_SbeJRmdvsEdEpNO-Z" : {
      "latitude" : "36.90316409",
      "ligne" : "27C",
      "longitude" : "10.18060112",
      "nom" : "jaafer essebelle",
      "num" : "14"
    },
    "-L_SbeNTNWrioVm9Abfu" : {
      "latitude" : "36.90448192",
      "ligne" : "27C",
      "longitude" : "10.18037152",
      "nom" : "mosquÉe jaafer",
      "num" : "15"
    },
    "-L_SbeSspGoonfdLY6L6" : {
      "latitude" : "36.90804649",
      "ligne" : "27C",
      "longitude" : "10.17900896",
      "nom" : "orange",
      "num" : "16"
    },
    "-L_SbeXCnjFVROOH5K_w" : {
      "latitude" : "36.93725931",
      "ligne" : "27C",
      "longitude" : "10.17935658",
      "nom" : "aichoucha",
      "num" : "17"
    },
    "-L_Sbe_rOq1CHdl5mOqQ" : {
      "latitude" : "36.93977189",
      "ligne" : "27C",
      "longitude" : "10.17862701",
      "nom" : "sidi amor",
      "num" : "18"
    },
    "-L_SbedQXMzS-ylOAL6i" : {
      "latitude" : "36.94415369",
      "ligne" : "27C",
      "longitude" : "10.17342353",
      "nom" : "mosquÉe citÉ chaker raoued",
      "num" : "19"
    },
    "-L_SbehcyJEpivZsJdm5" : {
      "latitude" : "36.94278848",
      "ligne" : "27C",
      "longitude" : "10.16962337",
      "nom" : "citÉ chaker raoued",
      "num" : "20"
    },
    "-L_Sbeky-4OuNeiRYvWs" : {
      "latitude" : "36.93864853",
      "ligne" : "27C",
      "longitude" : "10.15822077",
      "nom" : "stade essiebe",
      "num" : "21"
    },
    "-L_SbeouzetYifbCFYGy" : {
      "latitude" : "36.93416531",
      "ligne" : "27C",
      "longitude" : "10.14525175",
      "nom" : "ecole nationale des prisons",
      "num" : "22"
    },
    "-L_SbesMDDWpoxFQ4bXw" : {
      "latitude" : "36.93164735",
      "ligne" : "27C",
      "longitude" : "10.14325511",
      "nom" : "ejlame",
      "num" : "23"
    },
    "-L_Sbew7ET5C6BdkmmgA" : {
      "latitude" : "36.93081884",
      "ligne" : "27C",
      "longitude" : "10.14150524",
      "nom" : "mosquÉe borje touile",
      "num" : "24"
    },
    "-L_Sbf-HM1JIIuPvDwnt" : {
      "latitude" : "36.9278899",
      "ligne" : "27C",
      "longitude" : "10.14041948",
      "nom" : "citÉ 26/26",
      "num" : "25"
    },
    "-L_Sbf3D1Qg4meA0oEPr" : {
      "latitude" : "36.90041934",
      "ligne" : "27C",
      "longitude" : "10.12156759",
      "nom" : "guichet gÉant",
      "num" : "26"
    },
    "-L_Sbf6zCfaFBOYowbOz" : {
      "latitude" : "36.89530336",
      "ligne" : "27C",
      "longitude" : "10.11202589",
      "nom" : "cite el bokri",
      "num" : "27"
    },
    "-L_SbfBFWKfqRJNV-XbE" : {
      "latitude" : "36.84218369",
      "ligne" : "18C",
      "longitude" : "10.18251903",
      "nom" : "10 decembre",
      "num" : "1"
    },
    "-L_SbfGlwk1x8kkEXcMS" : {
      "latitude" : "36.85313089",
      "ligne" : "18C",
      "longitude" : "10.18521641",
      "nom" : "lycÉe kheredinne",
      "num" : "4"
    },
    "-L_SbfKUEAT4OIlNfmPN" : {
      "latitude" : "36.85574986",
      "ligne" : "18C",
      "longitude" : "10.18784322",
      "nom" : "la poste",
      "num" : "5"
    },
    "-L_SbfVHiNzNwWHT-Bc3" : {
      "latitude" : "36.85811",
      "ligne" : "18C",
      "longitude" : "10.19143914",
      "nom" : "place sala centre",
      "num" : "6"
    },
    "-L_SbfYtxEdT3NsL2CU_" : {
      "latitude" : "36.8584957",
      "ligne" : "18C",
      "longitude" : "10.19470699",
      "nom" : "foyer ariana",
      "num" : "7"
    },
    "-L_SbfcL1cgz8d_H6Pi8" : {
      "latitude" : "36.85930937",
      "ligne" : "18C",
      "longitude" : "10.20563275",
      "nom" : "les abattoirs",
      "num" : "8"
    },
    "-L_Sbfh8IG1n9vMFnK-I" : {
      "latitude" : "36.86353271",
      "ligne" : "18C",
      "longitude" : "10.21535307",
      "nom" : "monoprix",
      "num" : "9"
    },
    "-L_Sbflq-EZ34DmtUcUG" : {
      "latitude" : "36.86718932",
      "ligne" : "18C",
      "longitude" : "10.22372157",
      "nom" : "hamadi abid",
      "num" : "10"
    },
    "-L_SbfqfVsq9LzNVA8IE" : {
      "latitude" : "36.87032397",
      "ligne" : "18C",
      "longitude" : "10.23068503",
      "nom" : "shell soukra",
      "num" : "11"
    },
    "-L_SbfvmoG25IE5tvPEK" : {
      "latitude" : "36.87361978",
      "ligne" : "18C",
      "longitude" : "10.23792699",
      "nom" : "rue aÉroport",
      "num" : "12"
    },
    "-L_SbfzXKbcKFOP_wsmH" : {
      "latitude" : "36.87470208",
      "ligne" : "18C",
      "longitude" : "10.24367787",
      "nom" : "p.t.t soukra",
      "num" : "13"
    },
    "-L_Sbg21UOWkfu2aHfMK" : {
      "latitude" : "36.87565205",
      "ligne" : "18C",
      "longitude" : "10.24627358",
      "nom" : "restaurant le boeuf",
      "num" : "14"
    },
    "-L_Sbg5aSGHeV0VuSkbj" : {
      "latitude" : "36.88079972",
      "ligne" : "18C",
      "longitude" : "10.25159039",
      "nom" : "club de garde national",
      "num" : "15"
    },
    "-L_SbgAV5wVRP7RmMzcO" : {
      "latitude" : "36.8799224",
      "ligne" : "18C",
      "longitude" : "10.26079953",
      "nom" : "soukra",
      "num" : "16"
    },
    "-L_SbgENDgPBzwIN1ldP" : {
      "latitude" : "36.87780076",
      "ligne" : "18C",
      "longitude" : "10.26607711",
      "nom" : "mosquÉe sidi fraj",
      "num" : "17"
    },
    "-L_SbgHtOP9_7k5b2mrn" : {
      "latitude" : "36.87575504",
      "ligne" : "18C",
      "longitude" : "10.26891142",
      "nom" : "pharmacie de nuit",
      "num" : "18"
    },
    "-L_SbgLaqTaAQr8M9s4a" : {
      "latitude" : "36.87416227",
      "ligne" : "18C",
      "longitude" : "10.27256012",
      "nom" : "parc soukra",
      "num" : "19"
    },
    "-L_SbgP9fUKnFZYZOUsp" : {
      "latitude" : "36.8681696",
      "ligne" : "18C",
      "longitude" : "10.28647497",
      "nom" : "rue iraq",
      "num" : "20"
    },
    "-L_SbgT-usR6XHQiUcFg" : {
      "latitude" : "36.86732504",
      "ligne" : "18C",
      "longitude" : "10.28823473",
      "nom" : "ezoidia",
      "num" : "21"
    },
    "-L_SbgWR8N4XnWlpwHNy" : {
      "latitude" : "36.86612595",
      "ligne" : "18C",
      "longitude" : "10.29012043",
      "nom" : "mongi slim",
      "num" : "22"
    },
    "-L_SbgZxHyf4ZPwtBzxX" : {
      "latitude" : "36.86289393",
      "ligne" : "18C",
      "longitude" : "10.30298531",
      "nom" : "sidi daoued",
      "num" : "23"
    },
    "-L_SbgcId3qb3zS2rtjq" : {
      "latitude" : "36.854685",
      "ligne" : "18C",
      "longitude" : "10.3140644",
      "nom" : "citÉ mohamed ali",
      "num" : "24"
    },
    "-L_SbgftY4Md9s0INmiZ" : {
      "latitude" : "36.84905908",
      "ligne" : "18C",
      "longitude" : "10.31287819",
      "nom" : "yassmina1",
      "num" : "25"
    },
    "-L_SbgxRsid0FBvTrBMp" : {
      "latitude" : "36.84719781",
      "ligne" : "18C",
      "longitude" : "10.31440213",
      "nom" : "yassmina 2",
      "num" : "26"
    },
    "-L_Sbh-rYClxhcy9h3Ik" : {
      "latitude" : "36.84754982",
      "ligne" : "18C",
      "longitude" : "10.31688049",
      "nom" : "byrsa1",
      "num" : "27"
    },
    "-L_Sbh3ka63iOVU0eEHc" : {
      "latitude" : "36.84900077",
      "ligne" : "18C",
      "longitude" : "10.31821087",
      "nom" : "birsa 2",
      "num" : "28"
    },
    "-L_Sbh7lema7fo5LObvI" : {
      "latitude" : "36.85363676",
      "ligne" : "18C",
      "longitude" : "10.32740548",
      "nom" : "carthage hannibal",
      "num" : "29"
    },
    "-L_SbhB5gHMxuflGmalN" : {
      "latitude" : "36.84218369",
      "ligne" : "18",
      "longitude" : "10.18251903",
      "nom" : "10 decembre",
      "num" : "1"
    },
    "-L_SbhGBTKIAGRtGYzba" : {
      "latitude" : "36.85313089",
      "ligne" : "18",
      "longitude" : "10.18521641",
      "nom" : "lycÉe kheredinne",
      "num" : "4"
    },
    "-L_SbhJnxY0nlptoEos1" : {
      "latitude" : "36.85574986",
      "ligne" : "18",
      "longitude" : "10.18784322",
      "nom" : "la poste",
      "num" : "5"
    },
    "-L_SbhNU8N6RmPJTn6hj" : {
      "latitude" : "36.85811",
      "ligne" : "18",
      "longitude" : "10.19143914",
      "nom" : "place sala centre",
      "num" : "6"
    },
    "-L_SbhRvs84C2vTelZte" : {
      "latitude" : "36.8584957",
      "ligne" : "18",
      "longitude" : "10.19470699",
      "nom" : "foyer ariana",
      "num" : "7"
    },
    "-L_SbhVKlYPIkYtbYl5h" : {
      "latitude" : "36.85930937",
      "ligne" : "18",
      "longitude" : "10.20563275",
      "nom" : "les abattoirs",
      "num" : "8"
    },
    "-L_SbhYgv_KeUfGtTnbK" : {
      "latitude" : "36.86353271",
      "ligne" : "18",
      "longitude" : "10.21535307",
      "nom" : "monoprix",
      "num" : "9"
    },
    "-L_SbhbTu0tZ2QAiJZwp" : {
      "latitude" : "36.86718932",
      "ligne" : "18",
      "longitude" : "10.22372157",
      "nom" : "hamadi abid",
      "num" : "10"
    },
    "-L_Sbhf3gnes5oSN53f1" : {
      "latitude" : "36.87032397",
      "ligne" : "18",
      "longitude" : "10.23068503",
      "nom" : "shell soukra",
      "num" : "11"
    },
    "-L_SbhiXiEC5GArG4atE" : {
      "latitude" : "36.87361978",
      "ligne" : "18",
      "longitude" : "10.23792699",
      "nom" : "rue aÉroport",
      "num" : "12"
    },
    "-L_Sbhlwfw6kYO2nHI-1" : {
      "latitude" : "36.87470208",
      "ligne" : "18",
      "longitude" : "10.24367787",
      "nom" : "p.t.t soukra",
      "num" : "13"
    },
    "-L_SbhpKGjaQC45OrEXX" : {
      "latitude" : "36.87608117",
      "ligne" : "18",
      "longitude" : "10.24513632",
      "nom" : "e.p soukra",
      "num" : "14"
    },
    "-L_Sbhsr2cgGyBIQfjCz" : {
      "latitude" : "36.87827823",
      "ligne" : "18",
      "longitude" : "10.24266869",
      "nom" : "golfe de carthage",
      "num" : "15"
    },
    "-L_Sbhwql-bJjf-Mj3hU" : {
      "latitude" : "36.88045806",
      "ligne" : "18",
      "longitude" : "10.23949295",
      "nom" : "club des avocat",
      "num" : "16"
    },
    "-L_Sbi-adJX2VvnIkHCW" : {
      "latitude" : "36.88102804",
      "ligne" : "18",
      "longitude" : "10.23676872",
      "nom" : "cafÉ balbouli",
      "num" : "17"
    },
    "-L_Sbi6n2CAM71cJ9mAs" : {
      "latitude" : "36.88352352",
      "ligne" : "18",
      "longitude" : "10.2390857",
      "nom" : "tv hannibal",
      "num" : "18"
    },
    "-L_SbiEUBdOtLby7H3DZ" : {
      "latitude" : "36.8852466",
      "ligne" : "18",
      "longitude" : "10.24380594",
      "nom" : "chotrana 2",
      "num" : "19"
    },
    "-L_SbiI4OQ8FIMTxhb5q" : {
      "latitude" : "36.88328645",
      "ligne" : "18",
      "longitude" : "10.24826825",
      "nom" : "chotrana 3",
      "num" : "20"
    },
    "-L_SbiLXiUfWhgCW9mB0" : {
      "latitude" : "36.88079972",
      "ligne" : "18",
      "longitude" : "10.25159039",
      "nom" : "club de garde national",
      "num" : "21"
    },
    "-L_SbiPCmO1dTiZD5J_z" : {
      "latitude" : "36.8799224",
      "ligne" : "18",
      "longitude" : "10.26079953",
      "nom" : "soukra",
      "num" : "22"
    },
    "-L_SbiSdLIs4ReQE6FVP" : {
      "latitude" : "36.87780076",
      "ligne" : "18",
      "longitude" : "10.26607711",
      "nom" : "mosquÉe sidi fraj",
      "num" : "23"
    },
    "-L_SbiWFCxe0GJs_vLNu" : {
      "latitude" : "36.87575504",
      "ligne" : "18",
      "longitude" : "10.26891142",
      "nom" : "pharmacie de nuit",
      "num" : "24"
    },
    "-L_SbiZrfTQlxmwS5WYe" : {
      "latitude" : "36.87416227",
      "ligne" : "18",
      "longitude" : "10.27256012",
      "nom" : "parc soukra",
      "num" : "25"
    },
    "-L_SbicNc0N89d0dkV7z" : {
      "latitude" : "36.8681696",
      "ligne" : "18",
      "longitude" : "10.28647497",
      "nom" : "rue iraq",
      "num" : "26"
    },
    "-L_Sbig0Vk8LLNcJVMiE" : {
      "latitude" : "36.86732504",
      "ligne" : "18",
      "longitude" : "10.28823473",
      "nom" : "ezoidia",
      "num" : "27"
    },
    "-L_SbijlSbYuZ5QxOwFf" : {
      "latitude" : "36.86612595",
      "ligne" : "18",
      "longitude" : "10.29012043",
      "nom" : "mongi slim",
      "num" : "28"
    },
    "-L_SbinzLQDXbYwWBBOG" : {
      "latitude" : "36.84218369",
      "ligne" : "62",
      "longitude" : "10.18251903",
      "nom" : "10 decembre",
      "num" : "1"
    },
    "-L_Sbis7VB12waZ9N9tu" : {
      "latitude" : "36.8518082",
      "ligne" : "62",
      "longitude" : "10.18437512",
      "nom" : "lycee ariana",
      "num" : "3"
    },
    "-L_SbivaldwtRiRqcHpB" : {
      "latitude" : "36.85574986",
      "ligne" : "62",
      "longitude" : "10.18784322",
      "nom" : "la poste",
      "num" : "4"
    },
    "-L_Sbiz3END-L6HhNv9e" : {
      "latitude" : "36.8581935",
      "ligne" : "62",
      "longitude" : "10.18858686",
      "nom" : "arrÉt bab hadid",
      "num" : "5"
    },
    "-L_Sbj1dQCnR7GPHsWW1" : {
      "latitude" : "36.86194284",
      "ligne" : "62",
      "longitude" : "10.18722807",
      "nom" : "magro",
      "num" : "6"
    },
    "-L_Sbj5HqOX75ZUS_oj1" : {
      "latitude" : "36.86652969",
      "ligne" : "62",
      "longitude" : "10.18455097",
      "nom" : "citÉ ellil",
      "num" : "7"
    },
    "-L_SbjAi6c59lq2outhN" : {
      "latitude" : "36.86780915",
      "ligne" : "62",
      "longitude" : "10.1839567",
      "nom" : "hopital mahmoud matri",
      "num" : "8"
    },
    "-L_SbjEHhi09nIqZ15nL" : {
      "latitude" : "36.87160348",
      "ligne" : "62",
      "longitude" : "10.18215333",
      "nom" : "touben 2",
      "num" : "9"
    },
    "-L_SbjHzKy5Y9GPS5bjN" : {
      "latitude" : "36.87817426",
      "ligne" : "62",
      "longitude" : "10.17842431",
      "nom" : "croisement riadh andalous",
      "num" : "10"
    },
    "-L_SbjLir2AopRvrU8EV" : {
      "latitude" : "36.88177036",
      "ligne" : "62",
      "longitude" : "10.17543492",
      "nom" : "citÉ el ghazela",
      "num" : "11"
    },
    "-L_SbjPCAzaA4U9skOZg" : {
      "latitude" : "36.88428219",
      "ligne" : "62",
      "longitude" : "10.17114902",
      "nom" : "usine de carrelage",
      "num" : "12"
    },
    "-L_SbjTbL5kqlBD6qHcK" : {
      "latitude" : "36.88748072",
      "ligne" : "62",
      "longitude" : "10.16690778",
      "nom" : "citÉ populaire ennahli",
      "num" : "13"
    },
    "-L_SbjX0AwY32o6ekGyc" : {
      "latitude" : "36.89080123",
      "ligne" : "62",
      "longitude" : "10.15980517",
      "nom" : "carriÉre nahli",
      "num" : "14"
    },
    "-L_Sbj_eBTxxCgv3gwXc" : {
      "latitude" : "36.89321097",
      "ligne" : "62",
      "longitude" : "10.14688203",
      "nom" : "nahli",
      "num" : "15"
    },
    "-L_SbjdCYg6jNnCcDWNJ" : {
      "latitude" : "36.89234977",
      "ligne" : "62",
      "longitude" : "10.13845478",
      "nom" : "nahli 2",
      "num" : "16"
    },
    "-L_SbjgnZ3V7QMnHMLFO" : {
      "latitude" : "36.89295925",
      "ligne" : "62",
      "longitude" : "10.13008629",
      "nom" : "nahli 3",
      "num" : "17"
    },
    "-L_SbjkDr_Flqp572Rh9" : {
      "latitude" : "36.90041934",
      "ligne" : "62",
      "longitude" : "10.12156759",
      "nom" : "guichet gÉant",
      "num" : "18"
    },
    "-L_SbjpqfWV5vs8q0AJo" : {
      "latitude" : "36.89530336",
      "ligne" : "62",
      "longitude" : "10.11202589",
      "nom" : "cite el bokri",
      "num" : "19"
    },
    "-L_SbjtOtW6jyZsQyQn6" : {
      "latitude" : "36.84218369",
      "ligne" : "62A",
      "longitude" : "10.18251903",
      "nom" : "10 decembre",
      "num" : "1"
    },
    "-L_SbjwrFN8LqkFmzV7K" : {
      "latitude" : "36.8518082",
      "ligne" : "62A",
      "longitude" : "10.18437512",
      "nom" : "lycee ariana",
      "num" : "3"
    },
    "-L_Sbk-JIEfXVXdWFIns" : {
      "latitude" : "36.85574986",
      "ligne" : "62A",
      "longitude" : "10.18784322",
      "nom" : "la poste",
      "num" : "4"
    },
    "-L_Sbk2uMcHyVZz4Id9I" : {
      "latitude" : "36.8581935",
      "ligne" : "62A",
      "longitude" : "10.18858686",
      "nom" : "arrÉt bab hadid",
      "num" : "5"
    },
    "-L_Sbk6HELbGDJdcXe5k" : {
      "latitude" : "36.86194284",
      "ligne" : "62A",
      "longitude" : "10.18722807",
      "nom" : "magro",
      "num" : "6"
    },
    "-L_Sbk9h01fFZcKZBiUi" : {
      "latitude" : "36.86652969",
      "ligne" : "62A",
      "longitude" : "10.18455097",
      "nom" : "citÉ ellil",
      "num" : "7"
    },
    "-L_SbkDG1JB7vLP2g7XZ" : {
      "latitude" : "36.86780915",
      "ligne" : "62A",
      "longitude" : "10.1839567",
      "nom" : "hopital mahmoud matri",
      "num" : "8"
    },
    "-L_SbkGdB5waod8CM-s7" : {
      "latitude" : "36.87160348",
      "ligne" : "62A",
      "longitude" : "10.18215333",
      "nom" : "touben 2",
      "num" : "9"
    },
    "-L_SbkK0cJH6qmG78dBt" : {
      "latitude" : "36.87817426",
      "ligne" : "62A",
      "longitude" : "10.17842431",
      "nom" : "croisement riadh andalous",
      "num" : "10"
    },
    "-L_SbkNN7hce9KpaZ2Ez" : {
      "latitude" : "36.88177036",
      "ligne" : "62A",
      "longitude" : "10.17543492",
      "nom" : "citÉ el ghazela",
      "num" : "11"
    },
    "-L_SbkQgHQ6xOmvyuEQZ" : {
      "latitude" : "36.88428219",
      "ligne" : "62A",
      "longitude" : "10.17114902",
      "nom" : "usine de carrelage",
      "num" : "12"
    },
    "-L_Sbkb284SFr8BGfPMU" : {
      "latitude" : "36.88748072",
      "ligne" : "62A",
      "longitude" : "10.16690778",
      "nom" : "citÉ populaire ennahli",
      "num" : "13"
    },
    "-L_Sbkez3iWlqBMNNgb_" : {
      "latitude" : "36.89080123",
      "ligne" : "62A",
      "longitude" : "10.15980517",
      "nom" : "carriÉre nahli",
      "num" : "14"
    },
    "-L_SbkiNNBlvFv1nL0oS" : {
      "latitude" : "36.89321097",
      "ligne" : "62A",
      "longitude" : "10.14688203",
      "nom" : "nahli",
      "num" : "15"
    },
    "-L_SbkoCn44NP2tvh4N4" : {
      "latitude" : "36.89234977",
      "ligne" : "62A",
      "longitude" : "10.13845478",
      "nom" : "nahli 2",
      "num" : "16"
    },
    "-L_SbkseVyhYJyQhFYbV" : {
      "latitude" : "36.89295925",
      "ligne" : "62A",
      "longitude" : "10.13008629",
      "nom" : "nahli 3",
      "num" : "17"
    },
    "-L_SbkwOZF-bVWHj_6NY" : {
      "latitude" : "36.90041934",
      "ligne" : "62A",
      "longitude" : "10.12156759",
      "nom" : "guichet gÉant",
      "num" : "18"
    },
    "-L_Sbkzounw5_J4TN7m8" : {
      "latitude" : "36.9278899",
      "ligne" : "62A",
      "longitude" : "10.14041948",
      "nom" : "citÉ 26/26",
      "num" : "19"
    },
    "-L_Sbl2CPU85ycNzkp_q" : {
      "latitude" : "36.93081884",
      "ligne" : "62A",
      "longitude" : "10.14150524",
      "nom" : "mosquÉe borje touile",
      "num" : "20"
    },
    "-L_Sbl5myGSM0NYtK4h2" : {
      "latitude" : "36.93164735",
      "ligne" : "62A",
      "longitude" : "10.14325511",
      "nom" : "ejlame",
      "num" : "21"
    },
    "-L_Sbl9kwcwMylOKH5wH" : {
      "latitude" : "36.93416531",
      "ligne" : "62A",
      "longitude" : "10.14525175",
      "nom" : "ecole nationale des prisons",
      "num" : "22"
    },
    "-L_SblDCfFIVAf-sUfRD" : {
      "latitude" : "36.93864853",
      "ligne" : "62A",
      "longitude" : "10.15822077",
      "nom" : "stade essiebe",
      "num" : "23"
    },
    "-L_SblHoJxxMTKxS6hFo" : {
      "latitude" : "36.94278848",
      "ligne" : "62A",
      "longitude" : "10.16962337",
      "nom" : "citÉ chaker raoued",
      "num" : "24"
    },
    "-L_SblL8OxF8J3j8Sn7h" : {
      "latitude" : "36.94415369",
      "ligne" : "62A",
      "longitude" : "10.17342353",
      "nom" : "mosquÉe citÉ chaker raoued",
      "num" : "25"
    },
    "-L_SblOVaONM0RlWHhBZ" : {
      "latitude" : "36.93977189",
      "ligne" : "62A",
      "longitude" : "10.17862701",
      "nom" : "sidi amor",
      "num" : "26"
    },
    "-L_SblVuK_ymc23V8fMc" : {
      "latitude" : "36.85930937",
      "ligne" : "18B",
      "longitude" : "10.20563275",
      "nom" : "les abattoirs",
      "num" : "1"
    },
    "-L_SblZIQ6tkKUYYIPPL" : {
      "latitude" : "36.86353271",
      "ligne" : "18B",
      "longitude" : "10.21535307",
      "nom" : "monoprix",
      "num" : "4"
    },
    "-L_SblcOe26lig1S8hDw" : {
      "latitude" : "36.86718932",
      "ligne" : "18B",
      "longitude" : "10.22372157",
      "nom" : "hamadi abid",
      "num" : "5"
    },
    "-L_Sblg93rUyr1Zc_A7w" : {
      "latitude" : "36.87032397",
      "ligne" : "18B",
      "longitude" : "10.23068503",
      "nom" : "shell soukra",
      "num" : "6"
    },
    "-L_SbljjqXoT0EpbS4SW" : {
      "latitude" : "36.87352537",
      "ligne" : "18B",
      "longitude" : "10.23613527",
      "nom" : "club de la police national",
      "num" : "7"
    },
    "-L_Sbln2zjh2zU1lK5Yd" : {
      "latitude" : "36.87671037",
      "ligne" : "18B",
      "longitude" : "10.23248233",
      "nom" : "salle des fÉtes ezitouna",
      "num" : "8"
    },
    "-L_SblqTb7ugk2uPl9IR" : {
      "latitude" : "36.88097297",
      "ligne" : "18B",
      "longitude" : "10.22839934",
      "nom" : "universitÉ ibn khaldoune",
      "num" : "9"
    },
    "-L_SbltrO7tsiSHVySvR" : {
      "latitude" : "36.88433697",
      "ligne" : "18B",
      "longitude" : "10.22127539",
      "nom" : "sidi salah",
      "num" : "10"
    },
    "-L_SblydjNqLJe826CYX" : {
      "latitude" : "36.88862936",
      "ligne" : "18B",
      "longitude" : "10.21503165",
      "nom" : "mosquÉe sidi salah",
      "num" : "11"
    },
    "-L_Sbm2jwMmdUDFU1IDU" : {
      "latitude" : "36.89211315",
      "ligne" : "18B",
      "longitude" : "10.21153405",
      "nom" : "onas sidi salah",
      "num" : "12"
    },
    "-L_Sbm6DC0Vr9cKQxNdC" : {
      "latitude" : "36.86016594",
      "ligne" : "44A",
      "longitude" : "10.19818758",
      "nom" : "les abattoirs",
      "num" : "1"
    },
    "-L_SbmA6Rv50oqj8U8Xj" : {
      "latitude" : "36.85811",
      "ligne" : "44A",
      "longitude" : "10.19143914",
      "nom" : "place sala centre",
      "num" : "2"
    },
    "-L_SbmG2mHFUkZVTOFU3" : {
      "latitude" : "36.8581935",
      "ligne" : "44A",
      "longitude" : "10.18858686",
      "nom" : "arrÉt bab hadid",
      "num" : "3"
    },
    "-L_SbmKUWeektfYNmLF6" : {
      "latitude" : "36.86194284",
      "ligne" : "44A",
      "longitude" : "10.18722807",
      "nom" : "magro",
      "num" : "4"
    },
    "-L_SbmNpVjzo26V_uI9F" : {
      "latitude" : "36.87303964",
      "ligne" : "44A",
      "longitude" : "10.18539852",
      "nom" : "cafÉ leskale",
      "num" : "5"
    },
    "-L_SbmS6bpc_bnKyFEHe" : {
      "latitude" : "36.87713088",
      "ligne" : "44A",
      "longitude" : "10.18618655",
      "nom" : "lakrade",
      "num" : "6"
    },
    "-L_SbmW6GMM49V4w8xug" : {
      "latitude" : "36.87991057",
      "ligne" : "44A",
      "longitude" : "10.1856544",
      "nom" : "enkhilette",
      "num" : "7"
    },
    "-L_Sbm_6OPD3kE1w4O5C" : {
      "latitude" : "36.88970194",
      "ligne" : "44A",
      "longitude" : "10.18204951",
      "nom" : "el ghazela",
      "num" : "8"
    },
    "-L_SbmcW7X0sce-7pAF8" : {
      "latitude" : "36.89206966",
      "ligne" : "44A",
      "longitude" : "10.1812588",
      "nom" : "lycÉe el wafa",
      "num" : "9"
    },
    "-L_SbmgYBGzj3dOd8uNr" : {
      "latitude" : "36.89764739",
      "ligne" : "44A",
      "longitude" : "10.1808157",
      "nom" : "la petite ariana",
      "num" : "10"
    },
    "-L_SbmkP11GeNGH1tY1Q" : {
      "latitude" : "36.89981808",
      "ligne" : "44A",
      "longitude" : "10.18085861",
      "nom" : "jaafer1",
      "num" : "11"
    },
    "-L_Sbmnv4fbzV-LzBgJU" : {
      "latitude" : "36.90316409",
      "ligne" : "44A",
      "longitude" : "10.18060112",
      "nom" : "jaafer essebelle",
      "num" : "12"
    },
    "-L_SbmrPFCTghETErODO" : {
      "latitude" : "36.90448192",
      "ligne" : "44A",
      "longitude" : "10.18037152",
      "nom" : "mosquÉe jaafer",
      "num" : "13"
    },
    "-L_SbmuvgWkKzbNYEwP5" : {
      "latitude" : "36.90804649",
      "ligne" : "44A",
      "longitude" : "10.17900896",
      "nom" : "orange",
      "num" : "14"
    },
    "-L_SbmyJbkmUTuCPtyRf" : {
      "latitude" : "36.93725931",
      "ligne" : "44A",
      "longitude" : "10.17935658",
      "nom" : "aichoucha",
      "num" : "15"
    },
    "-L_Sbn0nwPr1UMo-70UV" : {
      "latitude" : "36.94224151",
      "ligne" : "44A",
      "longitude" : "10.17664218",
      "nom" : "arrÉt sidi amor",
      "num" : "16"
    },
    "-L_Sbn4fnRv85C01uKmj" : {
      "latitude" : "36.94415369",
      "ligne" : "44A",
      "longitude" : "10.17342353",
      "nom" : "mosquÉe citÉ chaker raoued",
      "num" : "17"
    },
    "-L_Sbn85uYs-lNJsYgxd" : {
      "latitude" : "36.94278848",
      "ligne" : "44A",
      "longitude" : "10.16962337",
      "nom" : "citÉ chaker raoued",
      "num" : "18"
    },
    "-L_SbnBs9MCMf_ucyHqF" : {
      "latitude" : "36.97071251",
      "ligne" : "44A",
      "longitude" : "10.13179062",
      "nom" : "bouhnache1",
      "num" : "19"
    },
    "-L_SbnFJTvMQtHW5y8Mf" : {
      "latitude" : "36.96722945",
      "ligne" : "44A",
      "longitude" : "10.12552857",
      "nom" : "bouhnache2",
      "num" : "20"
    },
    "-L_SbnIq8Ky4dk9gucny" : {
      "latitude" : "36.96384195",
      "ligne" : "44A",
      "longitude" : "10.11977971",
      "nom" : "bouhnache3",
      "num" : "21"
    },
    "-L_SbnMD89lDBZVbxgw2" : {
      "latitude" : "36.94409063",
      "ligne" : "44A",
      "longitude" : "10.08858096",
      "nom" : "borj youssef",
      "num" : "22"
    },
    "-L_SbnQ9CNF0umzIQiKo" : {
      "latitude" : "36.96101526",
      "ligne" : "44A",
      "longitude" : "10.0795902",
      "nom" : "essalat",
      "num" : "23"
    },
    "-L_SbnWIIlpuk2OIIuMW" : {
      "latitude" : "36.96928709",
      "ligne" : "44A",
      "longitude" : "10.07391036",
      "nom" : "arrÉt usine",
      "num" : "24"
    },
    "-L_SbnZew0zdEFxLC5aE" : {
      "latitude" : "36.97634192",
      "ligne" : "44A",
      "longitude" : "10.06744516",
      "nom" : "oued elmelah",
      "num" : "25"
    },
    "-L_Sbnc7HHMkYjexxVfI" : {
      "latitude" : "36.98471685",
      "ligne" : "44A",
      "longitude" : "10.06353736",
      "nom" : "arrÉt el kaabi",
      "num" : "26"
    },
    "-L_SbngQLeQnSROptlj5" : {
      "latitude" : "36.99232932",
      "ligne" : "44A",
      "longitude" : "10.06206337",
      "nom" : "pont bizerte glasse retour",
      "num" : "27"
    },
    "-L_Sbo0s1ieJQECPWj-H" : {
      "latitude" : "36.99908621",
      "ligne" : "44A",
      "longitude" : "10.0720371",
      "nom" : "tobyas",
      "num" : "28"
    },
    "-L_Sbo4D80SxTItk1iuV" : {
      "latitude" : "37.01182898",
      "ligne" : "44A",
      "longitude" : "10.07070726",
      "nom" : "methali",
      "num" : "29"
    },
    "-L_Sbo7rhTUv1xQ3rec5" : {
      "latitude" : "37.01983022",
      "ligne" : "44A",
      "longitude" : "10.07552451",
      "nom" : "oued majerda",
      "num" : "30"
    },
    "-L_SboBHfmRcojKoTYFU" : {
      "latitude" : "37.0313937",
      "ligne" : "44A",
      "longitude" : "10.08109278",
      "nom" : "gessir 1",
      "num" : "31"
    },
    "-L_SboEn3q_wNPrzwA_s" : {
      "latitude" : "37.03444274",
      "ligne" : "44A",
      "longitude" : "10.08480495",
      "nom" : "gessir 2",
      "num" : "32"
    },
    "-L_SboIasadJrFImC0dd" : {
      "latitude" : "37.04375733",
      "ligne" : "44A",
      "longitude" : "10.09327564",
      "nom" : "huilerie entrÉe galaat",
      "num" : "33"
    },
    "-L_SboM9jGB01xqzj4h4" : {
      "latitude" : "37.04598703",
      "ligne" : "44A",
      "longitude" : "10.09580204",
      "nom" : "rÉservoir d'eau",
      "num" : "34"
    },
    "-L_SboPi2p113nYBuZ2j" : {
      "latitude" : "37.04847662",
      "ligne" : "44A",
      "longitude" : "10.09802241",
      "nom" : "ejjbal",
      "num" : "35"
    },
    "-L_SboTFJ_VW7Tc1D6r-" : {
      "latitude" : "37.05139994",
      "ligne" : "44A",
      "longitude" : "10.10149931",
      "nom" : "el fajja",
      "num" : "36"
    },
    "-L_SboXNYmRE-YYcl8PF" : {
      "latitude" : "37.0552145",
      "ligne" : "44A",
      "longitude" : "10.10428344",
      "nom" : "ejjbal 2",
      "num" : "37"
    },
    "-L_SboaHN_QcawuHNrrk" : {
      "latitude" : "37.05640036",
      "ligne" : "44A",
      "longitude" : "10.10630582",
      "nom" : "ejjbal 3",
      "num" : "38"
    },
    "-L_SbofPKXumNy6vyZJ7" : {
      "latitude" : "37.05840014",
      "ligne" : "44A",
      "longitude" : "10.10990011",
      "nom" : "municipale",
      "num" : "39"
    },
    "-L_SboiwhKU2aqL9_V5W" : {
      "latitude" : "37.05976089",
      "ligne" : "44A",
      "longitude" : "10.11200284",
      "nom" : "ben nicha",
      "num" : "40"
    },
    "-L_SbomcFgJznFJdpQlQ" : {
      "latitude" : "37.06097236",
      "ligne" : "44A",
      "longitude" : "10.1155058",
      "nom" : "kambouza",
      "num" : "41"
    },
    "-L_Sbp12sorjPoIyZ7iX" : {
      "latitude" : "37.0623138",
      "ligne" : "44A",
      "longitude" : "10.11796519",
      "nom" : "errmila",
      "num" : "42"
    },
    "-L_Sbp4pQjUjtlRs5K0X" : {
      "latitude" : "37.06132225",
      "ligne" : "44A",
      "longitude" : "10.11865446",
      "nom" : "route lycÉe",
      "num" : "43"
    },
    "-L_Sbp8YQaRS_dZ3Y2UY" : {
      "latitude" : "37.05812131",
      "ligne" : "44A",
      "longitude" : "10.12007629",
      "nom" : "ecole primaire",
      "num" : "44"
    },
    "-L_SbpE1EMYFPc9G5r3h" : {
      "latitude" : "37.05310817",
      "ligne" : "44A",
      "longitude" : "10.12190555",
      "nom" : "terminus 44/44a/77",
      "num" : "45"
    },
    "-L_SbpHd2WA26Avcc0x3" : {
      "latitude" : "36.84455431",
      "ligne" : "47",
      "longitude" : "10.1843131",
      "nom" : "rabattement 10 decembre",
      "num" : "1"
    },
    "-L_SbpL7U70IFIw7GkbO" : {
      "latitude" : "36.85313089",
      "ligne" : "47",
      "longitude" : "10.18521641",
      "nom" : "lycÉe kheredinne",
      "num" : "3"
    },
    "-L_SbpOUJC7U20z6gzTZ" : {
      "latitude" : "36.85574986",
      "ligne" : "47",
      "longitude" : "10.18784322",
      "nom" : "la poste",
      "num" : "4"
    },
    "-L_SbpRk2GaG5W8gEgIi" : {
      "latitude" : "36.85811",
      "ligne" : "47",
      "longitude" : "10.19143914",
      "nom" : "place sala centre",
      "num" : "5"
    },
    "-L_SbpVFmmr-FbsI0nk7" : {
      "latitude" : "36.8584957",
      "ligne" : "47",
      "longitude" : "10.19470699",
      "nom" : "foyer ariana",
      "num" : "6"
    },
    "-L_SbpYtD4nd_KY61WYH" : {
      "latitude" : "36.85930937",
      "ligne" : "47",
      "longitude" : "10.20563275",
      "nom" : "les abattoirs",
      "num" : "7"
    },
    "-L_SbpbVyJzyu5IiKDpD" : {
      "latitude" : "36.86353271",
      "ligne" : "47",
      "longitude" : "10.21535307",
      "nom" : "monoprix",
      "num" : "8"
    },
    "-L_SbpezYgREs3EERcYO" : {
      "latitude" : "36.86718932",
      "ligne" : "47",
      "longitude" : "10.22372157",
      "nom" : "hamadi abid",
      "num" : "9"
    },
    "-L_SbpiUvlFJfthXi3XV" : {
      "latitude" : "36.87032397",
      "ligne" : "47",
      "longitude" : "10.23068503",
      "nom" : "shell soukra",
      "num" : "10"
    },
    "-L_Sbpm-LEOtwJfnegyL" : {
      "latitude" : "36.87361978",
      "ligne" : "47",
      "longitude" : "10.23792699",
      "nom" : "rue aÉroport",
      "num" : "11"
    },
    "-L_Sbpps_XiNETYayneK" : {
      "latitude" : "36.87470208",
      "ligne" : "47",
      "longitude" : "10.24367787",
      "nom" : "p.t.t soukra",
      "num" : "12"
    },
    "-L_SbptKeVUsfnXEeSxe" : {
      "latitude" : "36.87089394",
      "ligne" : "47",
      "longitude" : "10.24829406",
      "nom" : "ras ejdir",
      "num" : "13"
    },
    "-L_SbpwlqdRjP3bi15rW" : {
      "latitude" : "36.86875326",
      "ligne" : "47",
      "longitude" : "10.24962142",
      "nom" : "dar fadhal",
      "num" : "14"
    },
    "-L_Sbq-N0V5_9OQBI8VF" : {
      "latitude" : "36.86382098",
      "ligne" : "47",
      "longitude" : "10.25286019",
      "nom" : "cimetiÉre dar fadhal",
      "num" : "15"
    },
    "-L_Sbq2r-wpj-rAwt7xv" : {
      "latitude" : "36.85289505",
      "ligne" : "47",
      "longitude" : "10.25773264",
      "nom" : "el aouina (section)",
      "num" : "16"
    },
    "-L_Sbq6d5jb-D_TTp-MQ" : {
      "latitude" : "36.84878435",
      "ligne" : "47",
      "longitude" : "10.26406199",
      "nom" : "citÉ taieb mhiri",
      "num" : "17"
    },
    "-L_SbqAL627AyYcEOlfD" : {
      "latitude" : "36.85327619",
      "ligne" : "47",
      "longitude" : "10.27422264",
      "nom" : "citÉ essalem",
      "num" : "18"
    },
    "-L_SbqE6M3OWyFECny4F" : {
      "latitude" : "36.85555116",
      "ligne" : "47",
      "longitude" : "10.2817972",
      "nom" : "municipalitÉ ain zaghouan",
      "num" : "19"
    },
    "-L_SbqHopu2M-4E0qzEe" : {
      "latitude" : "36.85071784",
      "ligne" : "47",
      "longitude" : "10.28293446",
      "nom" : "ain zaghouan (section)",
      "num" : "20"
    },
    "-L_SbqLIIP8G_9gSbVF-" : {
      "latitude" : "36.83785931",
      "ligne" : "47",
      "longitude" : "10.3043586",
      "nom" : "foire le kram",
      "num" : "21"
    },
    "-L_SbqQojSvTd5mzkHap" : {
      "latitude" : "36.83886591",
      "ligne" : "47",
      "longitude" : "10.30688144",
      "nom" : "5 decembre 1",
      "num" : "22"
    },
    "-L_SbqUABksQ_l5nq7Kg" : {
      "latitude" : "36.84157403",
      "ligne" : "47",
      "longitude" : "10.31313613",
      "nom" : "5 decembre 2",
      "num" : "23"
    },
    "-L_SbqXeK3sk5XjauSKo" : {
      "latitude" : "36.83892763",
      "ligne" : "47",
      "longitude" : "10.31734139",
      "nom" : "salambo",
      "num" : "24"
    },
    "-L_SbqaGhY3XsSpiIIuo" : {
      "latitude" : "36.82943211",
      "ligne" : "47",
      "longitude" : "10.31370476",
      "nom" : "kheredinne",
      "num" : "25"
    },
    "-L_SbqdeRpYPbG63c0Zg" : {
      "latitude" : "36.83642031",
      "ligne" : "47",
      "longitude" : "10.31691223",
      "nom" : "le kram",
      "num" : "26"
    },
    "-L_Sbqh3KzRozRAPNcKZ" : {
      "latitude" : "36.82445113",
      "ligne" : "47",
      "longitude" : "10.31007841",
      "nom" : "la goulette casino",
      "num" : "27"
    },
    "-L_SbqkVPv31e3rxuJ0O" : {
      "latitude" : "36.81954712",
      "ligne" : "47",
      "longitude" : "10.30664518",
      "nom" : "goulette neuve",
      "num" : "28"
    },
    "-L_Sbqo3FslEZnhawFiy" : {
      "latitude" : "36.81692501",
      "ligne" : "47",
      "longitude" : "10.30478865",
      "nom" : "goulette vieille",
      "num" : "29"
    },
    "-L_SbqreXFOLEFNSGhP8" : {
      "latitude" : "36.81340415",
      "ligne" : "47",
      "longitude" : "10.30275017",
      "nom" : "port la goulette",
      "num" : "30"
    },
    "-L_SbqvLptwpVD2JcCDz" : {
      "latitude" : "36.86016594",
      "ligne" : "460",
      "longitude" : "10.19818758",
      "nom" : "les abattoirs",
      "num" : "1"
    },
    "-L_SbqysW8MOxNKutK5E" : {
      "latitude" : "36.8584957",
      "ligne" : "460",
      "longitude" : "10.19470699",
      "nom" : "foyer ariana",
      "num" : "2"
    },
    "-L_Sbr9hBSgS095GgoJW" : {
      "latitude" : "36.85811",
      "ligne" : "460",
      "longitude" : "10.19143914",
      "nom" : "place sala centre",
      "num" : "3"
    },
    "-L_SbrD9DzP_uHDDyTY2" : {
      "latitude" : "36.85574986",
      "ligne" : "460",
      "longitude" : "10.18784322",
      "nom" : "la poste",
      "num" : "4"
    },
    "-L_SbrVby_ByE2nQ656B" : {
      "latitude" : "36.85313089",
      "ligne" : "460",
      "longitude" : "10.18521641",
      "nom" : "lycÉe kheredinne",
      "num" : "5"
    },
    "-L_SbrZeM9QW8p4oQFFa" : {
      "latitude" : "36.84218369",
      "ligne" : "460",
      "longitude" : "10.18251903",
      "nom" : "10 decembre",
      "num" : "8"
    },
    "-L_Sbrc19vlBkIu3MeQ3" : {
      "latitude" : "36.83864097",
      "ligne" : "460",
      "longitude" : "10.18188687",
      "nom" : "citÉ sportive",
      "num" : "9"
    },
    "-L_SbrfU95R7Mkrz-FvI" : {
      "latitude" : "36.83502379",
      "ligne" : "460",
      "longitude" : "10.18111976",
      "nom" : "pharmacie central",
      "num" : "10"
    },
    "-L_SbrivKLXCtFwgKY0w" : {
      "latitude" : "36.8319311",
      "ligne" : "460",
      "longitude" : "10.18016942",
      "nom" : "ministÉre de l' Équipement",
      "num" : "11"
    },
    "-L_SbrmQs32v0uRgwofz" : {
      "latitude" : "36.82887395",
      "ligne" : "460",
      "longitude" : "10.18009432",
      "nom" : "cite mahrajene",
      "num" : "12"
    },
    "-L_Sbrq0FzjEvmx6Wu8t" : {
      "latitude" : "36.82653465",
      "ligne" : "460",
      "longitude" : "10.17959241",
      "nom" : "patisserie ben yeder",
      "num" : "13"
    },
    "-L_SbruKcoGDklZIHbcW" : {
      "latitude" : "36.82324023",
      "ligne" : "460",
      "longitude" : "10.17854936",
      "nom" : "place pasteur",
      "num" : "14"
    },
    "-L_SbrxmYnN3CXDftSCE" : {
      "latitude" : "36.82202068",
      "ligne" : "460",
      "longitude" : "10.17828114",
      "nom" : "bureau de poste place pasteur",
      "num" : "15"
    },
    "-L_Sbs0aHG9CPqfN_AEN" : {
      "latitude" : "36.81842994",
      "ligne" : "460",
      "longitude" : "10.17704076",
      "nom" : "le belvÉdÉre",
      "num" : "16"
    },
    "-L_Sbs8hjhVZ3zGj7nI3" : {
      "latitude" : "36.81393047",
      "ligne" : "460",
      "longitude" : "10.1750991",
      "nom" : "taieb mhiri",
      "num" : "17"
    },
    "-L_SbsCU1rjl5CFAPvW5" : {
      "latitude" : "36.81353142",
      "ligne" : "460",
      "longitude" : "10.17234716",
      "nom" : "mechtel",
      "num" : "18"
    },
    "-L_SbsGDjezJD_VZqghU" : {
      "latitude" : "36.81291985",
      "ligne" : "460",
      "longitude" : "10.16842818",
      "nom" : "bab laassal",
      "num" : "19"
    },
    "-L_SbsJl6Zf-5uFWRGlk" : {
      "latitude" : "36.80946337",
      "ligne" : "460",
      "longitude" : "10.16108698",
      "nom" : "bab abdeslem",
      "num" : "20"
    },
    "-L_SbsNLA_7WCcnV2Ldp" : {
      "latitude" : "36.8092749",
      "ligne" : "460",
      "longitude" : "10.15657577",
      "nom" : "bab saadoun ",
      "num" : "21"
    },
    "-L_SbsRbwdRxdZp2jZo9" : {
      "latitude" : "36.80905034",
      "ligne" : "460",
      "longitude" : "10.14709657",
      "nom" : "bouchoucha",
      "num" : "22"
    },
    "-L_SbsVAWJtTuwo6PGTf" : {
      "latitude" : "36.80825148",
      "ligne" : "460",
      "longitude" : "10.14142102",
      "nom" : "20 mars ",
      "num" : "23"
    },
    "-L_SbsYrefp3sjCU3J5C" : {
      "latitude" : "36.80943839",
      "ligne" : "460",
      "longitude" : "10.13275883",
      "nom" : "bardo",
      "num" : "24"
    },
    "-L_SbsbRCH4Si9v2BpSv" : {
      "latitude" : "36.80716727",
      "ligne" : "460",
      "longitude" : "10.1336858",
      "nom" : "municipalite bardo",
      "num" : "25"
    },
    "-L_SbsfE3ogBA0MvgCTS" : {
      "latitude" : "36.80597237",
      "ligne" : "460",
      "longitude" : "10.12886319",
      "nom" : "lycee saoueb",
      "num" : "26"
    },
    "-L_Sbsix4mYxnP1AHmcH" : {
      "latitude" : "36.80496731",
      "ligne" : "460",
      "longitude" : "10.12430879",
      "nom" : "lycee khaznadar",
      "num" : "27"
    },
    "-L_SbsmJ6hJHyD-q58Vp" : {
      "latitude" : "36.80396653",
      "ligne" : "460",
      "longitude" : "10.12091848",
      "nom" : "khaznadar",
      "num" : "28"
    },
    "-L_SbsqAU2XnWWVxHm23" : {
      "latitude" : "36.80311177",
      "ligne" : "460",
      "longitude" : "10.11670741",
      "nom" : "l'artisanat",
      "num" : "29"
    },
    "-L_SbstckQWTegxEUqdE" : {
      "latitude" : "36.8023678",
      "ligne" : "460",
      "longitude" : "10.11021741",
      "nom" : "denden",
      "num" : "30"
    },
    "-L_Sbsy2biyY6hvpUTCa" : {
      "latitude" : "36.80386387",
      "ligne" : "460",
      "longitude" : "10.09859191",
      "nom" : "rabattement slimen kahia",
      "num" : "31"
    },
    "-L_Sbt0Zd1sDuF95DIwo" : {
      "latitude" : "36.80611669",
      "ligne" : "460",
      "longitude" : "10.09487437",
      "nom" : "onas manouba",
      "num" : "32"
    },
    "-L_Sbt43J0pbayE8DR-1" : {
      "latitude" : "36.80839522",
      "ligne" : "460",
      "longitude" : "10.09235577",
      "nom" : "poste police manouba",
      "num" : "33"
    },
    "-L_Sbt81QS_L2WKGfZbJ" : {
      "latitude" : "36.80930868",
      "ligne" : "460",
      "longitude" : "10.09283021",
      "nom" : "mosquÉe manouba",
      "num" : "34"
    },
    "-L_SbtBbgNL7C7f7TQLp" : {
      "latitude" : "36.81172759",
      "ligne" : "460",
      "longitude" : "10.0951425",
      "nom" : "p.t.t manouba",
      "num" : "35"
    },
    "-L_SbtF9alsmv_XjiTki" : {
      "latitude" : "36.8155796",
      "ligne" : "460",
      "longitude" : "10.10031912",
      "nom" : "hopital kassab ",
      "num" : "36"
    },
    "-L_SbtIbd4e5YnNx6m0l" : {
      "latitude" : "36.81618822",
      "ligne" : "460",
      "longitude" : "10.09611315",
      "nom" : "boudria ",
      "num" : "37"
    },
    "-L_SbtM1LNb5WmeXjtO1" : {
      "latitude" : "36.80038414",
      "ligne" : "5D",
      "longitude" : "10.1903877",
      "nom" : "terminus tunis marine bus",
      "num" : "1"
    },
    "-L_SbtPTVAyEJTjlS-Jk" : {
      "latitude" : "36.8016177",
      "ligne" : "5D",
      "longitude" : "10.183899",
      "nom" : "jeans jaures",
      "num" : "2"
    },
    "-L_SbtSyp1so9PWIT-ws" : {
      "latitude" : "36.80549955",
      "ligne" : "5D",
      "longitude" : "10.18199775",
      "nom" : "steg jeans jaures ",
      "num" : "3"
    },
    "-L_SbtWX_cbL0c3rdSTQ" : {
      "latitude" : "36.80691143",
      "ligne" : "5D",
      "longitude" : "10.18153614",
      "nom" : "passage jeans jaures ",
      "num" : "4"
    },
    "-L_SbtaUBVqV1WYOcWae" : {
      "latitude" : "36.81056183",
      "ligne" : "5D",
      "longitude" : "10.18072383",
      "nom" : "la fayette ",
      "num" : "5"
    },
    "-L_Sbtf_x4dpRxBCp3zx" : {
      "latitude" : "36.81835661",
      "ligne" : "5D",
      "longitude" : "10.17957853",
      "nom" : "place jeans dark ",
      "num" : "6"
    },
    "-L_SbtlqppO3ZaSYnWMb" : {
      "latitude" : "36.82324023",
      "ligne" : "5D",
      "longitude" : "10.17854936",
      "nom" : "place pasteur",
      "num" : "7"
    },
    "-L_SbtrU3k1V9DzoKh1l" : {
      "latitude" : "36.82653465",
      "ligne" : "5D",
      "longitude" : "10.17959241",
      "nom" : "patisserie ben yeder",
      "num" : "8"
    },
    "-L_Sbtwm4AL_EuaUQy85" : {
      "latitude" : "36.82887395",
      "ligne" : "5D",
      "longitude" : "10.18009432",
      "nom" : "cite mahrajene",
      "num" : "9"
    },
    "-L_Sbu2cxHYhnYL-Bo9o" : {
      "latitude" : "36.8319311",
      "ligne" : "5D",
      "longitude" : "10.18016942",
      "nom" : "ministÉre de l' Équipement",
      "num" : "10"
    },
    "-L_Sbu7Ei1zpTPmCsKFZ" : {
      "latitude" : "36.83358661",
      "ligne" : "5D",
      "longitude" : "10.17926127",
      "nom" : "menzeh1",
      "num" : "11"
    },
    "-L_SbuCwvYj7bQl9YPKx" : {
      "latitude" : "36.83538989",
      "ligne" : "5D",
      "longitude" : "10.17567784",
      "nom" : "ambassade iraq",
      "num" : "12"
    },
    "-L_SbuIotCK14YJ6_tjv" : {
      "latitude" : "36.83691674",
      "ligne" : "5D",
      "longitude" : "10.17378487",
      "nom" : "État unis",
      "num" : "13"
    },
    "-L_SbuOa4tgq19yBZIsj" : {
      "latitude" : "36.84212444",
      "ligne" : "5D",
      "longitude" : "10.16734757",
      "nom" : "sourÉseau",
      "num" : "14"
    },
    "-L_SbuUEbNKqeQy7Tcfg" : {
      "latitude" : "36.84420996",
      "ligne" : "5D",
      "longitude" : "10.16611889",
      "nom" : "snit menzeh 6",
      "num" : "15"
    },
    "-L_Sbu_1nF5jb_FHdYcp" : {
      "latitude" : "36.84615716",
      "ligne" : "5D",
      "longitude" : "10.16623646",
      "nom" : "monoprix menzeh 6",
      "num" : "16"
    },
    "-L_SbuetMK2dTjBxnB_x" : {
      "latitude" : "36.84693166",
      "ligne" : "5D",
      "longitude" : "10.16528204",
      "nom" : "pharmacie menzeh 6",
      "num" : "17"
    },
    "-L_Sbuks9IovrpfCpJcE" : {
      "latitude" : "36.85218679",
      "ligne" : "5D",
      "longitude" : "10.16465999",
      "nom" : "lycÉe menzeh6",
      "num" : "18"
    },
    "-L_SbuomJrvWWehfUo6l" : {
      "latitude" : "36.85605256",
      "ligne" : "5D",
      "longitude" : "10.16825158",
      "nom" : "centre ikram",
      "num" : "19"
    },
    "-L_SbuspTRZZYgXkAsqZ" : {
      "latitude" : "36.85856433",
      "ligne" : "5D",
      "longitude" : "10.16605452",
      "nom" : "agil",
      "num" : "20"
    },
    "-L_SbuwHZgxMwna5eALz" : {
      "latitude" : "36.85950949",
      "ligne" : "5D",
      "longitude" : "10.16673602",
      "nom" : "cafÉ randa",
      "num" : "21"
    },
    "-L_Sbv1LZOuuvcZifnha" : {
      "latitude" : "36.86347531",
      "ligne" : "5D",
      "longitude" : "10.16853847",
      "nom" : "citÉ nacer 1",
      "num" : "22"
    },
    "-L_Sbv4n5zrGY4HIwSON" : {
      "latitude" : "36.86198171",
      "ligne" : "5D",
      "longitude" : "10.16445078",
      "nom" : "hedi nouira",
      "num" : "23"
    },
    "-L_Sbv9Jz9IexsQnmJF3" : {
      "latitude" : "36.86168127",
      "ligne" : "5D",
      "longitude" : "10.16314723",
      "nom" : "terminus 5d/ 51a",
      "num" : "24"
    },
    "-L_SbvClqFxBBmBkIb_P" : {
      "latitude" : "36.80038414",
      "ligne" : "51A",
      "longitude" : "10.1903877",
      "nom" : "terminus tunis marine bus",
      "num" : "1"
    },
    "-L_SbvHV3QBxto0Sk3Un" : {
      "latitude" : "36.8016177",
      "ligne" : "51A",
      "longitude" : "10.183899",
      "nom" : "jeans jaures",
      "num" : "2"
    },
    "-L_SbvL8IwMubvdyzJwD" : {
      "latitude" : "36.80549955",
      "ligne" : "51A",
      "longitude" : "10.18199775",
      "nom" : "steg jeans jaures ",
      "num" : "3"
    },
    "-L_SbvOTnKduwbKvkRuy" : {
      "latitude" : "36.80691143",
      "ligne" : "51A",
      "longitude" : "10.18153614",
      "nom" : "passage jeans jaures ",
      "num" : "4"
    },
    "-L_SbvSIrkuhJzfLO2cm" : {
      "latitude" : "36.81056183",
      "ligne" : "51A",
      "longitude" : "10.18072383",
      "nom" : "la fayette ",
      "num" : "5"
    },
    "-L_SbvW3EYELhWWvl4pO" : {
      "latitude" : "36.81835661",
      "ligne" : "51A",
      "longitude" : "10.17957853",
      "nom" : "place jeans dark ",
      "num" : "6"
    },
    "-L_Sbv_EaXGMCNa8lARC" : {
      "latitude" : "36.82324023",
      "ligne" : "51A",
      "longitude" : "10.17854936",
      "nom" : "place pasteur",
      "num" : "7"
    },
    "-L_Sbveoc9MqPax9f6oR" : {
      "latitude" : "36.82653465",
      "ligne" : "51A",
      "longitude" : "10.17959241",
      "nom" : "patisserie ben yeder",
      "num" : "8"
    },
    "-L_SbviEeune6OPvNOQb" : {
      "latitude" : "36.82887395",
      "ligne" : "51A",
      "longitude" : "10.18009432",
      "nom" : "cite mahrajene",
      "num" : "9"
    },
    "-L_SbvllUxuBpQ6q8wSO" : {
      "latitude" : "36.8319311",
      "ligne" : "51A",
      "longitude" : "10.18016942",
      "nom" : "ministÉre de l' Équipement",
      "num" : "10"
    },
    "-L_SbvpF11HeMq0mcGYY" : {
      "latitude" : "36.83358661",
      "ligne" : "51A",
      "longitude" : "10.17926127",
      "nom" : "menzeh1",
      "num" : "11"
    },
    "-L_Sbvt5b2bmWL2VgtuF" : {
      "latitude" : "36.83538989",
      "ligne" : "51A",
      "longitude" : "10.17567784",
      "nom" : "ambassade iraq",
      "num" : "12"
    },
    "-L_Sbvy8K9WOoY_jXPia" : {
      "latitude" : "36.83691674",
      "ligne" : "51A",
      "longitude" : "10.17378487",
      "nom" : "État unis",
      "num" : "13"
    },
    "-L_SbwBDewENrhm5EEN7" : {
      "latitude" : "36.84212444",
      "ligne" : "51A",
      "longitude" : "10.16734757",
      "nom" : "sourÉseau",
      "num" : "14"
    },
    "-L_SbwEyXeh1UKmfJ5iC" : {
      "latitude" : "36.84257861",
      "ligne" : "51A",
      "longitude" : "10.16404822",
      "nom" : "snit",
      "num" : "15"
    },
    "-L_SbwJ5uNfZigpjAk7Q" : {
      "latitude" : "36.84106744",
      "ligne" : "51A",
      "longitude" : "10.16213849",
      "nom" : "sprols manar",
      "num" : "16"
    },
    "-L_SbwM_r561A9OEyrD8" : {
      "latitude" : "36.83908916",
      "ligne" : "51A",
      "longitude" : "10.15680112",
      "nom" : "soula",
      "num" : "17"
    },
    "-L_SbwQzkc4IQ0v8THEJ" : {
      "latitude" : "36.84163413",
      "ligne" : "51A",
      "longitude" : "10.15525058",
      "nom" : "banque",
      "num" : "18"
    },
    "-L_SbwW9JWWLtz-jaQsj" : {
      "latitude" : "36.84620188",
      "ligne" : "51A",
      "longitude" : "10.15319064",
      "nom" : "centre makni",
      "num" : "19"
    },
    "-L_SbwaXvS1aQJsL2zxX" : {
      "latitude" : "36.84930126",
      "ligne" : "51A",
      "longitude" : "10.15070155",
      "nom" : "menzeh9",
      "num" : "20"
    },
    "-L_SbwekJlwv3_Ji84lO" : {
      "latitude" : "36.85032292",
      "ligne" : "51A",
      "longitude" : "10.14957502",
      "nom" : "clinique el amel",
      "num" : "21"
    },
    "-L_Sbwjqx2yV5LBM0S_f" : {
      "latitude" : "36.85239194",
      "ligne" : "51A",
      "longitude" : "10.15335157",
      "nom" : "shell menzeh 7",
      "num" : "22"
    },
    "-L_SbwnRLDfaYUj84Bjz" : {
      "latitude" : "36.85735393",
      "ligne" : "51A",
      "longitude" : "10.15356615",
      "nom" : "lycÉe nacer 2",
      "num" : "23"
    },
    "-L_SbwrmV7IG6f9F9KxN" : {
      "latitude" : "36.85992923",
      "ligne" : "51A",
      "longitude" : "10.15315846",
      "nom" : "clinique citÉ nacer",
      "num" : "24"
    },
    "-L_SbwvzPzniosLJH-Hc" : {
      "latitude" : "36.86033787",
      "ligne" : "51A",
      "longitude" : "10.16071178",
      "nom" : "camoune mÉdicale",
      "num" : "25"
    },
    "-L_Sbx-ylWSb6BwcaBBG" : {
      "latitude" : "36.86004082",
      "ligne" : "51A",
      "longitude" : "10.16252473",
      "nom" : "mosquÉe citÉ nacer",
      "num" : "26"
    },
    "-L_Sbx56n0XL6QULktTV" : {
      "latitude" : "36.86168127",
      "ligne" : "51A",
      "longitude" : "10.16314723",
      "nom" : "terminus 5d/ 51a",
      "num" : "27"
    },
    "-L_SbxBHtpyz-qq8oMnK" : {
      "latitude" : "36.80038414",
      "ligne" : "38B",
      "longitude" : "10.1903877",
      "nom" : "terminus tunis marine bus",
      "num" : "1"
    },
    "-L_SbxEg9SdsNuPVW-EY" : {
      "latitude" : "36.8016177",
      "ligne" : "38B",
      "longitude" : "10.183899",
      "nom" : "jeans jaures",
      "num" : "2"
    },
    "-L_SbxIWuC6eQZLXug3c" : {
      "latitude" : "36.80549955",
      "ligne" : "38B",
      "longitude" : "10.18199775",
      "nom" : "steg jeans jaures ",
      "num" : "3"
    },
    "-L_SbxM6Qr_u1LefMlkf" : {
      "latitude" : "36.80691143",
      "ligne" : "38B",
      "longitude" : "10.18153614",
      "nom" : "passage jeans jaures ",
      "num" : "4"
    },
    "-L_SbxPY_fkI6ocOfpQG" : {
      "latitude" : "36.81056183",
      "ligne" : "38B",
      "longitude" : "10.18072383",
      "nom" : "la fayette ",
      "num" : "5"
    },
    "-L_SbxTAHvqHikeUc4zQ" : {
      "latitude" : "36.81835661",
      "ligne" : "38B",
      "longitude" : "10.17957853",
      "nom" : "place jeans dark ",
      "num" : "6"
    },
    "-L_SbxWfqS9ZJhUpyF-I" : {
      "latitude" : "36.82309354",
      "ligne" : "38B",
      "longitude" : "10.17767376",
      "nom" : "place pasteur ",
      "num" : "7"
    },
    "-L_Sbx_H2KUFiQf6zgda" : {
      "latitude" : "36.82962103",
      "ligne" : "38B",
      "longitude" : "10.1705499",
      "nom" : "chedly zouiten",
      "num" : "8"
    },
    "-L_Sbxct0cJetbH6_Qz3" : {
      "latitude" : "36.83377821",
      "ligne" : "38B",
      "longitude" : "10.16720809",
      "nom" : "municipalitÉ mutuelle ville",
      "num" : "9"
    },
    "-L_Sbxhr-zLTzZDRzsqt" : {
      "latitude" : "36.83856109",
      "ligne" : "38B",
      "longitude" : "10.1661513",
      "nom" : "rx",
      "num" : "10"
    },
    "-L_SbxlvTXseS-ufIAUr" : {
      "latitude" : "36.83605287",
      "ligne" : "38B",
      "longitude" : "10.16062573",
      "nom" : "soned",
      "num" : "11"
    },
    "-L_SbxpU0MCS2Oy1u5Uf" : {
      "latitude" : "36.83219784",
      "ligne" : "38B",
      "longitude" : "10.15431198",
      "nom" : "clinique taoufik ",
      "num" : "12"
    },
    "-L_SbxsuHtUQUQcOzXSY" : {
      "latitude" : "36.83072024",
      "ligne" : "38B",
      "longitude" : "10.15037969",
      "nom" : "facultÉ de droit",
      "num" : "13"
    },
    "-L_SbxwP0Xx7dZN8J5Aw" : {
      "latitude" : "36.83283272",
      "ligne" : "38B",
      "longitude" : "10.14807299",
      "nom" : "facultÉ des sciences de tunis",
      "num" : "14"
    },
    "-L_Sby0mr3tMp5HgX_L5" : {
      "latitude" : "36.83654303",
      "ligne" : "38B",
      "longitude" : "10.14469363",
      "nom" : "carrefour",
      "num" : "15"
    },
    "-L_Sby7fkBvkvWWk0cEe" : {
      "latitude" : "36.83539686",
      "ligne" : "38B",
      "longitude" : "10.13811685",
      "nom" : "maison des mamans",
      "num" : "16"
    },
    "-L_SbyJ-56YD9xrcTDgI" : {
      "latitude" : "36.83619026",
      "ligne" : "38B",
      "longitude" : "10.13204411",
      "nom" : "foyer omrane supÉrieur",
      "num" : "17"
    },
    "-L_SbyMJZLuV-xxJnblp" : {
      "latitude" : "36.83685939",
      "ligne" : "38B",
      "longitude" : "10.12902921",
      "nom" : "terminus omrane supÉrieur l 78 + 38 b",
      "num" : "18"
    },
    "-L_SbyPiG_AeXYFUg9vf" : {
      "latitude" : "36.80038414",
      "ligne" : "38C",
      "longitude" : "10.1903877",
      "nom" : "terminus tunis marine bus",
      "num" : "1"
    },
    "-L_SbyTAvLi-4Crlr11r" : {
      "latitude" : "36.8016177",
      "ligne" : "38C",
      "longitude" : "10.183899",
      "nom" : "jeans jaures",
      "num" : "2"
    },
    "-L_SbyXjPoWM0zMSwdN2" : {
      "latitude" : "36.80549955",
      "ligne" : "38C",
      "longitude" : "10.18199775",
      "nom" : "steg jeans jaures ",
      "num" : "3"
    },
    "-L_SbyaCy-u8vhDq7usY" : {
      "latitude" : "36.80691143",
      "ligne" : "38C",
      "longitude" : "10.18153614",
      "nom" : "passage jeans jaures ",
      "num" : "4"
    },
    "-L_SbydgzHHeok2AbBzY" : {
      "latitude" : "36.81056183",
      "ligne" : "38C",
      "longitude" : "10.18072383",
      "nom" : "la fayette ",
      "num" : "5"
    },
    "-L_Sbyh38ilIsBWRDvNg" : {
      "latitude" : "36.81835661",
      "ligne" : "38C",
      "longitude" : "10.17957853",
      "nom" : "place jeans dark ",
      "num" : "6"
    },
    "-L_SbykQllKbGXwMrFx9" : {
      "latitude" : "36.82324023",
      "ligne" : "38C",
      "longitude" : "10.17854936",
      "nom" : "place pasteur",
      "num" : "7"
    },
    "-L_SbynmqsxHAfwjih7L" : {
      "latitude" : "36.82653465",
      "ligne" : "38C",
      "longitude" : "10.17959241",
      "nom" : "patisserie ben yeder",
      "num" : "8"
    },
    "-L_SbyrIUGBgTHAot8PL" : {
      "latitude" : "36.82887395",
      "ligne" : "38C",
      "longitude" : "10.18009432",
      "nom" : "cite mahrajene",
      "num" : "9"
    },
    "-L_SbyvCShY8zc-hI4DE" : {
      "latitude" : "36.8319311",
      "ligne" : "38C",
      "longitude" : "10.18016942",
      "nom" : "ministÉre de l' Équipement",
      "num" : "10"
    },
    "-L_Sbz-xFxz1wRhV2oVP" : {
      "latitude" : "36.83358661",
      "ligne" : "38C",
      "longitude" : "10.17926127",
      "nom" : "menzeh1",
      "num" : "11"
    },
    "-L_Sbz4YVBenK8NOXgpb" : {
      "latitude" : "36.83538989",
      "ligne" : "38C",
      "longitude" : "10.17567784",
      "nom" : "ambassade iraq",
      "num" : "12"
    },
    "-L_Sbz8IOuPsumG1qlc7" : {
      "latitude" : "36.83691674",
      "ligne" : "38C",
      "longitude" : "10.17378487",
      "nom" : "État unis",
      "num" : "13"
    },
    "-L_SbzBtyMaOYdXrVLF7" : {
      "latitude" : "36.83605287",
      "ligne" : "38C",
      "longitude" : "10.16062573",
      "nom" : "soned",
      "num" : "14"
    },
    "-L_SbzGFmwyZKwyEw-47" : {
      "latitude" : "36.83219784",
      "ligne" : "38C",
      "longitude" : "10.15431198",
      "nom" : "clinique taoufik ",
      "num" : "15"
    },
    "-L_SbzKQM3xiCyItinWj" : {
      "latitude" : "36.82938577",
      "ligne" : "38C",
      "longitude" : "10.14964499",
      "nom" : "campus(rx)",
      "num" : "16"
    },